city,lat,lon,timestamp,pm2_5,pm10,no2,o3,so2,co,aqi_category
Mumbai,19.054999,72.8692035,2025-11-23 23:00:00,75.7,76.6,18.7,150.0,38.6,934.0,Moderate
New Delhi,28.6138954,77.2090057,2025-11-23 23:00:00,149.9,151.8,60.4,45.0,37.4,1774.0,Very Poor
Pune,18.5213738,73.8545071,2025-11-23 23:00:00,52.9,53.4,37.6,64.0,24.5,953.0,Satisfactory
Shrirampur,19.6199708,74.6546944,2025-11-23 23:00:00,27.4,27.9,11.1,65.0,5.7,591.0,Good
Vaduj,17.5950822,74.4504661,2025-11-23 23:00:00,52.9,54.1,40.2,34.0,8.6,430.0,Satisfactory
Pushkar,26.4876472,74.5578484,2025-11-23 23:00:00,53.4,55.9,10.6,96.0,14.3,502.0,Satisfactory
Orchha,25.3528706,78.6402465,2025-11-23 23:00:00,72.4,79.2,15.8,74.0,8.8,615.0,Moderate
Phillaur,31.018294,75.7839116,2025-11-23 23:00:00,135.5,136.4,34.2,78.0,28.9,1465.0,Very Poor
Goraya,31.1208324,75.7787046,2025-11-23 23:00:00,135.5,136.4,34.2,78.0,28.9,1250.0,Very Poor
Phagwara,31.2206734,75.7696463,2025-11-23 23:00:00,135.5,136.4,34.2,78.0,28.9,1409.0,Very Poor
Mohali,30.7041168,76.7176885,2025-11-23 23:00:00,80.3,81.5,50.2,31.0,26.0,1228.0,Moderate
Morinda,30.7908462,76.4984505,2025-11-23 23:00:00,137.8,139.7,44.9,51.0,27.1,1087.0,Very Poor
Kurali,30.8314536,76.5784763,2025-11-23 23:00:00,137.8,139.7,44.9,51.0,27.1,1183.0,Very Poor
Rupnagar,30.9688367,76.526088,2025-11-23 23:00:00,137.8,139.7,44.9,51.0,27.1,1087.0,Very Poor
Moga,30.8223408,75.1730967,2025-11-23 23:00:00,140.6,142.5,34.5,78.0,26.3,1113.0,Very Poor
Pahalgam,34.0322048,75.3226479,2025-11-23 23:00:00,49.2,52.4,26.8,41.0,10.6,547.0,Satisfactory
Ambala,30.3843674,76.770421,2025-11-23 23:00:00,110.4,112.0,43.1,46.0,28.2,966.0,Poor
Doraha,30.7988727,76.0372906,2025-11-23 23:00:00,126.2,127.6,28.7,81.0,22.3,1449.0,Very Poor
Sriperumbudur,12.9666144,79.9458077,2025-11-23 23:00:00,9.7,11.6,14.0,51.0,6.2,273.0,Good
Poonamallee,13.0492031,80.1010677,2025-11-23 23:00:00,11.1,13.4,14.4,49.0,5.9,350.0,Good
Sahnewal,30.8402061,75.983601,2025-11-23 23:00:00,126.2,127.6,28.7,81.0,22.3,1449.0,Very Poor
Vellore,12.9071753,79.1309695,2025-11-23 23:00:00,13.6,15.3,15.5,45.0,7.1,247.0,Good
Jagraon,30.8041704,75.4753645,2025-11-23 23:00:00,129.0,130.4,29.8,86.0,25.7,1095.0,Very Poor
Gill,30.846374,75.8628312,2025-11-23 23:00:00,126.2,127.6,28.7,81.0,22.3,1362.0,Very Poor
Dehlon,30.7431327,75.8505198,2025-11-23 23:00:00,126.2,127.6,28.7,81.0,22.3,1258.0,Very Poor
Nagercoil,8.1880471,77.4290492,2025-11-23 23:00:00,3.2,3.2,6.2,54.0,3.2,425.0,Good
Nanguneri,8.4892568,77.6596709,2025-11-23 23:00:00,2.7,2.7,6.0,51.0,2.0,224.0,Good
Thiruvananthapuram,8.4882267,76.947551,2025-11-23 23:00:00,7.2,7.3,8.7,62.0,4.6,593.0,Good
Nazareth,8.5599258,77.9719457,2025-11-23 23:00:00,4.3,4.7,9.1,46.0,5.3,211.0,Good
Vikramasingapuram,8.7141792,77.3892867,2025-11-23 23:00:00,9.5,9.6,11.1,35.0,1.7,232.0,Good
Tirunelveli,8.7284271,77.7112925,2025-11-23 23:00:00,3.4,3.5,6.1,52.0,1.6,263.0,Good
Alwarkuruchi,8.782604,77.3985651,2025-11-23 23:00:00,9.5,9.6,11.1,35.0,1.7,266.0,Good
Kollam,8.8870533,76.5906696,2025-11-23 23:00:00,8.8,8.9,7.4,70.0,5.5,355.0,Good
Ayoor,8.8978612,76.8601206,2025-11-23 23:00:00,16.2,16.4,17.3,29.0,4.9,243.0,Good
Kulathupuzha,8.9065347,77.0564917,2025-11-23 23:00:00,9.5,9.6,11.1,35.0,1.7,216.0,Good
Tenkasi,8.9557896,77.3072559,2025-11-23 23:00:00,9.5,9.6,11.1,35.0,1.7,246.0,Good
Kottarakkara,9.0054869,76.7831987,2025-11-23 23:00:00,34.0,34.3,45.4,6.0,11.2,308.0,Satisfactory
Vilattikulam,9.130928,78.167316,2025-11-23 23:00:00,5.9,6.1,9.0,46.0,2.9,208.0,Good
Ettaiyapuram,9.1485222,77.9971639,2025-11-23 23:00:00,5.9,6.1,9.0,46.0,2.9,225.0,Good
Sankarankovil,9.170073,77.535369,2025-11-23 23:00:00,5.8,5.8,7.7,50.0,2.7,261.0,Good
Puliyangudi,9.1756002,77.3966381,2025-11-23 23:00:00,9.0,9.1,9.5,38.0,2.3,198.0,Good
Haripad,9.2844934,76.4562679,2025-11-23 23:00:00,24.1,24.2,28.2,62.0,11.1,594.0,Good
Mandapam,9.282701,79.1526713,2025-11-23 23:00:00,2.8,4.3,0.8,70.0,0.2,175.0,Good
Sattur,9.3516337,77.9211286,2025-11-23 23:00:00,5.9,6.1,9.0,46.0,2.9,243.0,Good
Rajapalayam,9.4456102,77.5542849,2025-11-23 23:00:00,5.2,5.3,8.1,48.0,2.4,256.0,Good
Devipattinam,9.4749165,78.8967566,2025-11-23 23:00:00,4.7,5.4,8.1,47.0,2.6,183.0,Good
Alappuzha,9.4923271,76.3291487,2025-11-23 23:00:00,27.4,27.6,28.3,60.0,11.2,303.0,Good
Aruppukkottai,9.5073229,78.0958971,2025-11-23 23:00:00,7.4,7.5,11.2,44.0,3.6,207.0,Good
Virudhunagar,9.58224,77.9537,2025-11-23 23:00:00,7.4,7.5,11.2,44.0,3.6,226.0,Good
Thondi,9.7422651,79.0175877,2025-11-23 23:00:00,3.7,5.2,2.6,65.0,1.1,192.0,Good
Painavu,9.8540061,76.9446486,2025-11-23 23:00:00,17.8,17.9,19.3,17.0,2.4,319.0,Good
Usilampatti,9.9648653,77.7898611,2025-11-23 23:00:00,3.9,4.0,7.2,49.0,2.6,253.0,Good
Muvattupuzha,9.9831493,76.5781613,2025-11-23 23:00:00,29.8,30.4,36.6,11.0,8.8,937.0,Good
Theni,10.0108143,77.4810104,2025-11-23 23:00:00,3.9,4.0,7.2,49.0,2.6,262.0,Good
Melur,10.0309005,78.337589,2025-11-23 23:00:00,5.5,6.1,10.9,43.0,10.5,232.0,Good
Angamaly,10.1910284,76.3874109,2025-11-23 23:00:00,29.8,30.4,36.6,11.0,8.8,428.0,Good
Natham,10.2256894,78.2299964,2025-11-23 23:00:00,5.7,6.5,10.9,46.0,12.4,223.0,Good
Chinnalapatti,10.2767592,77.9218398,2025-11-23 23:00:00,8.3,8.6,14.0,38.0,9.8,252.0,Good
Dindigul,10.365646,77.9693256,2025-11-23 23:00:00,8.3,8.6,14.0,38.0,9.8,240.0,Good
Thuvarankurichchi,10.3758009,78.3872851,2025-11-23 23:00:00,5.7,6.5,10.9,46.0,12.4,229.0,Good
Muthupet,10.3956923,79.4944659,2025-11-23 23:00:00,5.7,7.3,6.5,55.0,3.2,231.0,Good
Vedasandur,10.5324146,77.9463173,2025-11-23 23:00:00,8.3,8.6,14.0,38.0,9.8,221.0,Good
Udumalapettai,10.5839,77.25,2025-11-23 23:00:00,4.5,4.6,9.1,44.0,3.1,232.0,Good
Orathanadu,10.6296502,79.2515516,2025-11-23 23:00:00,7.7,8.5,13.5,43.0,13.4,257.0,Good
Kilvelur,10.7690209,79.7421122,2025-11-23 23:00:00,6.9,8.3,9.3,46.0,5.9,223.0,Good
Thanjavur,10.7860267,79.1381497,2025-11-23 23:00:00,7.7,8.5,13.5,43.0,13.4,215.0,Good
Lalgudi,10.877163,78.8138944,2025-11-23 23:00:00,7.4,8.1,12.9,46.0,13.5,256.0,Good
Kodavasal,10.8552828,79.4809565,2025-11-23 23:00:00,6.9,8.3,9.3,46.0,5.9,245.0,Good
Musiri,10.951573,78.4419808,2025-11-23 23:00:00,9.3,10.3,15.0,39.0,10.4,275.0,Good
Karur,10.9596041,78.0807797,2025-11-23 23:00:00,12.0,13.1,19.4,39.0,12.8,261.0,Good
Kumbakonam,10.9604108,79.3820861,2025-11-23 23:00:00,7.7,8.5,13.5,43.0,13.4,233.0,Good
Palladam,10.9962313,77.2835582,2025-11-23 23:00:00,10.3,10.4,14.7,43.0,6.3,275.0,Good
Thottiyam,10.9891847,78.3354402,2025-11-23 23:00:00,9.3,10.3,15.0,39.0,10.4,277.0,Good
Coimbatore,11.0018115,76.9628425,2025-11-23 23:00:00,7.7,7.8,14.6,41.0,4.8,362.0,Good
Kangeyam,11.0060598,77.5607403,2025-11-23 23:00:00,13.4,13.6,20.4,41.0,5.6,271.0,Good
Thathaiyangarpet,11.121255,78.4496465,2025-11-23 23:00:00,12.4,13.3,19.4,31.0,5.5,281.0,Good
Thuraiyur,11.1518947,78.5957098,2025-11-23 23:00:00,12.4,13.3,19.4,31.0,5.5,250.0,Good
Ariyalur,11.1357708,79.0723203,2025-11-23 23:00:00,6.7,7.3,11.5,48.0,11.7,264.0,Good
Jayankondam,11.2119861,79.3648642,2025-11-23 23:00:00,6.7,7.3,11.5,48.0,11.7,207.0,Good
Perambalur,11.2356695,78.8688353,2025-11-23 23:00:00,7.9,8.1,11.0,50.0,7.3,256.0,Good
Sendurai,11.2538986,79.1771548,2025-11-23 23:00:00,6.7,7.3,11.5,48.0,11.7,240.0,Good
Sendamangalam,11.2812016,78.2350768,2025-11-23 23:00:00,12.4,13.3,19.4,31.0,5.5,342.0,Good
Tiruchengodu,11.3786608,77.8949223,2025-11-23 23:00:00,15.7,16.0,19.2,40.0,9.4,462.0,Good
Tittakudi,11.402175,79.1210712,2025-11-23 23:00:00,8.5,9.2,10.5,49.0,5.2,243.0,Good
Pennadam,11.4028109,79.2416716,2025-11-23 23:00:00,8.5,9.2,10.5,49.0,5.2,242.0,Good
Udhagamandalam,11.4126769,76.7030504,2025-11-23 23:00:00,2.7,2.8,9.1,43.0,2.1,219.0,Good
Bhavani,11.4405993,77.6824386,2025-11-23 23:00:00,15.4,15.7,21.8,33.0,5.9,507.0,Good
Sankagiri,11.4760857,77.8704045,2025-11-23 23:00:00,15.4,15.7,19.9,34.0,7.1,350.0,Good
Veeraganur,11.4761379,78.7380844,2025-11-23 23:00:00,9.3,9.6,9.6,51.0,3.3,266.0,Good
Parangipettai,11.4905673,79.7568983,2025-11-23 23:00:00,6.5,8.1,7.6,57.0,4.9,192.0,Good
Gangavalli,11.499684,78.6447079,2025-11-23 23:00:00,9.3,9.6,9.6,51.0,3.3,234.0,Good
Attayampatti,11.531861,78.0508039,2025-11-23 23:00:00,15.4,15.7,19.9,34.0,7.1,256.0,Good
Anthiyur,11.575293,77.5886003,2025-11-23 23:00:00,15.4,15.7,21.8,33.0,5.9,330.0,Good
Kalpetta,11.610278,76.08281,2025-11-23 23:00:00,22.5,22.8,21.8,24.0,3.8,325.0,Good
Kallakurichi,11.7406259,78.9637131,2025-11-23 23:00:00,9.3,9.6,9.6,51.0,3.3,262.0,Good
Thiyagadurgam,11.7417773,79.0733496,2025-11-23 23:00:00,8.5,9.2,10.5,49.0,5.2,259.0,Good
Mettur,11.7902463,77.7980929,2025-11-23 23:00:00,15.4,15.7,21.8,33.0,5.9,326.0,Good
Yercaud,11.7852074,78.2075392,2025-11-23 23:00:00,8.5,8.8,13.0,38.0,1.5,350.0,Good
Gundlupet,11.808496,76.6916141,2025-11-23 23:00:00,5.9,6.0,11.2,45.0,2.7,214.0,Good
Sankarapuram,11.8873761,78.9166118,2025-11-23 23:00:00,12.0,12.4,10.8,49.0,5.1,279.0,Good
Chamarajanagara,11.9238058,76.9393558,2025-11-23 23:00:00,5.9,6.0,11.2,45.0,2.7,254.0,Good
Puducherry,11.9340568,79.8306447,2025-11-23 23:00:00,7.9,11.2,2.8,71.0,0.9,238.0,Good
Taliparamba,12.0373542,75.3602841,2025-11-23 23:00:00,19.4,19.9,18.9,62.0,4.9,552.0,Good
Sreekandapuram,12.0472242,75.5104585,2025-11-23 23:00:00,15.7,15.8,23.5,11.0,2.9,787.0,Good
Hanur,12.0870315,77.3017969,2025-11-23 23:00:00,6.3,6.5,10.2,45.0,2.0,220.0,Good
Yelanduru,12.0463301,77.0306546,2025-11-23 23:00:00,6.3,6.5,10.2,45.0,2.0,495.0,Good
Nileshwaram,12.250817,75.1281569,2025-11-23 23:00:00,18.8,19.1,24.7,36.0,3.4,331.0,Good
Nanjanagudu,12.1186851,76.6817502,2025-11-23 23:00:00,5.9,6.0,11.2,45.0,2.7,309.0,Good
Kollegal,12.1560966,77.1071726,2025-11-23 23:00:00,6.3,6.5,10.2,45.0,2.0,239.0,Good
Tiruvannamalai,12.2343228,79.0761989,2025-11-23 23:00:00,11.3,12.6,11.8,44.0,5.7,239.0,Good
Chengam,12.3075866,78.7931408,2025-11-23 23:00:00,11.0,11.5,10.4,47.0,4.9,295.0,Good
Periyapatna,12.3372494,76.0988013,2025-11-23 23:00:00,10.1,10.2,19.6,37.0,3.1,296.0,Good
Cheyur,12.3521251,80.0037515,2025-11-23 23:00:00,9.3,12.2,7.0,63.0,3.2,209.0,Good
Malavalli,12.3864073,77.0589464,2025-11-23 23:00:00,8.3,8.5,10.5,47.0,4.4,241.0,Good
Krishnarajanagara,12.438561,76.3836699,2025-11-23 23:00:00,8.3,8.5,14.9,44.0,4.1,339.0,Good
Rayakottai,12.5136509,78.0323496,2025-11-23 23:00:00,12.6,12.9,12.2,44.0,4.3,243.0,Good
Sulya,12.5576644,75.3907575,2025-11-23 23:00:00,18.8,19.1,24.7,36.0,3.4,438.0,Good
Saligrama,12.5601566,76.2628551,2025-11-23 23:00:00,8.3,8.5,14.9,44.0,4.1,269.0,Good
Jolarpet,12.5643214,78.5797192,2025-11-23 23:00:00,12.0,12.3,12.0,46.0,5.2,257.0,Good
Somwarpet,12.5971883,75.8466865,2025-11-23 23:00:00,10.1,10.2,19.6,37.0,3.1,271.0,Good
Krishnarajapete,12.6655205,76.4896194,2025-11-23 23:00:00,9.1,9.4,17.6,44.0,3.6,308.0,Good
Channapattana,12.6544559,77.2042594,2025-11-23 23:00:00,12.2,12.6,21.0,36.0,8.7,288.0,Good
Subramanya,12.6677868,75.6131771,2025-11-23 23:00:00,8.7,8.8,20.1,23.0,1.1,407.0,Good
Vaniyambadi,12.6787174,78.6199879,2025-11-23 23:00:00,10.3,11.6,11.8,44.0,4.4,249.0,Good
Anekal,12.7086373,77.6993972,2025-11-23 23:00:00,8.9,9.1,14.9,48.0,5.6,230.0,Good
Ramanagara,12.7252766,77.2804797,2025-11-23 23:00:00,12.2,12.6,21.0,36.0,8.7,290.0,Good
Arkalgud,12.7627771,76.0623411,2025-11-23 23:00:00,8.6,8.8,17.1,47.0,2.9,276.0,Good
Puttur,12.7632858,75.2018421,2025-11-23 23:00:00,13.5,13.7,16.2,36.0,1.8,387.0,Good
Holenarasipura,12.7852158,76.2431266,2025-11-23 23:00:00,9.1,9.4,17.6,44.0,3.6,297.0,Good
Ullal,12.8181202,74.8459375,2025-11-23 23:00:00,14.5,15.3,11.4,57.0,4.6,378.0,Good
Nagamangala,12.8196077,76.7542189,2025-11-23 23:00:00,10.0,10.4,18.5,39.0,4.8,268.0,Good
Sarjapura,12.8600866,77.7861352,2025-11-23 23:00:00,8.9,9.1,14.9,48.0,5.6,256.0,Good
Shravanabelagola,12.858127,76.4870114,2025-11-23 23:00:00,9.1,9.4,17.6,44.0,3.6,304.0,Good
Mangaluru,12.8698101,74.8430082,2025-11-23 23:00:00,14.5,15.3,11.4,57.0,4.6,360.0,Good
Kolar Gold Fields,12.9545994,78.2731252,2025-11-23 23:00:00,6.1,6.6,7.0,52.0,2.8,207.0,Good
Magadi,12.9567353,77.2242281,2025-11-23 23:00:00,12.2,12.6,21.0,36.0,8.7,491.0,Good
Belthangadi,12.9903521,75.2825052,2025-11-23 23:00:00,13.5,13.7,16.2,36.0,1.8,407.0,Good
Maluru,13.0060343,77.9382839,2025-11-23 23:00:00,7.3,7.6,6.8,50.0,1.4,247.0,Good
Bethamangalam,13.0062969,78.3299172,2025-11-23 23:00:00,8.1,8.6,5.7,50.0,1.2,207.0,Good
Moodabidri,13.0699218,74.9977469,2025-11-23 23:00:00,14.0,14.6,14.4,53.0,2.7,439.0,Good
Mulki,13.0904094,74.7870474,2025-11-23 23:00:00,14.0,14.6,14.4,53.0,2.7,408.0,Good
Arakkonam,13.0839782,79.6700892,2025-11-23 23:00:00,11.3,13.2,10.8,47.0,4.9,226.0,Good
Avadi,13.1194809,80.1026704,2025-11-23 23:00:00,11.1,13.4,14.4,49.0,5.9,276.0,Good
Kolar,13.1367201,78.1337246,2025-11-23 23:00:00,7.3,7.6,6.8,50.0,1.4,222.0,Good
Turuvekere,13.1627196,76.6680675,2025-11-23 23:00:00,10.7,11.4,17.7,36.0,6.7,331.0,Good
Mulabagilu,13.1660479,78.3927241,2025-11-23 23:00:00,8.1,8.6,5.7,50.0,1.2,222.0,Good
Belur,13.1645671,75.8634851,2025-11-23 23:00:00,7.9,8.0,12.9,51.0,2.8,277.0,Good
Karkala,13.2145414,74.9951861,2025-11-23 23:00:00,14.0,14.6,14.4,53.0,2.7,457.0,Good
Chittoor,13.2161224,79.0972819,2025-11-23 23:00:00,11.4,13.0,9.9,53.0,3.5,253.0,Good
Kalasa,13.2322235,75.3582366,2025-11-23 23:00:00,7.5,7.6,17.6,25.0,1.3,323.0,Good
Arasikere,13.3159809,76.256849,2025-11-23 23:00:00,7.9,8.2,12.8,49.0,3.6,351.0,Good
Chikkamagaluru,13.318014,75.7738743,2025-11-23 23:00:00,9.5,9.6,18.3,27.0,1.6,227.0,Good
Srinivaspur,13.340085,78.2117487,2025-11-23 23:00:00,8.1,8.6,5.7,50.0,1.2,233.0,Good
Udupi,13.3419169,74.7473232,2025-11-23 23:00:00,14.0,14.6,14.4,53.0,2.7,280.0,Good
Punganuru,13.36385,78.5721781,2025-11-23 23:00:00,8.1,8.6,5.7,50.0,1.2,243.0,Good
Sidlaghatta,13.3885218,77.8641332,2025-11-23 23:00:00,7.3,7.6,6.8,50.0,1.4,272.0,Good
Chikkanayakanahalli,13.4190772,76.6202776,2025-11-23 23:00:00,6.6,7.1,9.0,46.0,3.1,327.0,Good
Chowdepalle,13.4336063,78.6904747,2025-11-23 23:00:00,7.3,8.6,6.2,52.0,1.9,224.0,Good
Satyavedu,13.4433561,79.9553361,2025-11-23 23:00:00,10.1,12.8,5.1,53.0,1.1,244.0,Good
Sakharayapattana,13.4331791,75.920889,2025-11-23 23:00:00,7.3,7.6,10.9,43.0,2.3,248.0,Good
Hebri,13.459429,74.991552,2025-11-23 23:00:00,11.5,12.2,13.6,51.0,1.5,358.0,Good
Koratagere,13.5215422,77.2358911,2025-11-23 23:00:00,6.2,6.6,7.7,51.0,3.3,277.0,Good
Koppa,13.533207,75.3633986,2025-11-23 23:00:00,10.4,10.7,21.6,22.0,2.6,291.0,Good
Kaduru,13.5527523,76.0142384,2025-11-23 23:00:00,7.3,7.6,10.9,43.0,2.3,254.0,Good
Chandragiri,13.5842501,79.3166721,2025-11-23 23:00:00,10.8,12.4,12.0,41.0,2.7,245.0,Good
Narasimharajapura,13.6107959,75.5117301,2025-11-23 23:00:00,7.3,7.7,11.9,36.0,1.2,196.0,Good
Gauribidanuru,13.6114523,77.5167805,2025-11-23 23:00:00,6.0,6.5,6.9,53.0,2.5,257.0,Good
Kundapura,13.6250993,74.6915722,2025-11-23 23:00:00,11.5,12.2,13.6,51.0,1.5,296.0,Good
Madhugiri,13.6601789,77.2140882,2025-11-23 23:00:00,6.2,6.6,7.7,51.0,3.3,251.0,Good
Tirthahalli,13.6901992,75.2463699,2025-11-23 23:00:00,10.4,10.7,21.6,22.0,2.6,206.0,Good
Tarikere,13.7062309,75.8183561,2025-11-23 23:00:00,7.3,7.6,10.9,43.0,2.3,222.0,Good
Bagepalli,13.7836611,77.7972379,2025-11-23 23:00:00,6.0,6.5,6.9,53.0,2.5,200.0,Good
Hosadurga,13.7987759,76.2831034,2025-11-23 23:00:00,7.4,7.9,9.0,48.0,2.6,246.0,Good
Hindupur,13.8306127,77.492635,2025-11-23 23:00:00,4.8,5.1,4.5,57.0,1.4,223.0,Good
Bhadravathi,13.8502075,75.7037863,2025-11-23 23:00:00,8.9,9.2,11.0,52.0,3.6,272.0,Good
Bainduru,13.8662536,74.6270036,2025-11-23 23:00:00,12.9,14.0,15.5,46.0,1.8,287.0,Good
Hosanagara,13.916789,75.0657952,2025-11-23 23:00:00,11.9,12.4,28.0,30.0,2.4,212.0,Good
Shivamogga,13.9326093,75.574978,2025-11-23 23:00:00,8.9,9.2,11.0,52.0,3.6,291.0,Good
Madakasira,13.9405457,77.272588,2025-11-23 23:00:00,4.8,5.1,4.7,57.0,1.6,234.0,Good
Venkatagiri,13.957582,79.5809332,2025-11-23 23:00:00,13.3,15.8,15.0,36.0,2.8,228.0,Good
Bhatkal,13.9873619,74.5544089,2025-11-23 23:00:00,12.0,15.0,4.6,93.0,1.9,300.0,Good
Channagiri,14.0252,75.925,2025-11-23 23:00:00,6.9,7.1,7.8,58.0,3.0,230.0,Good
Murdeshwar,14.0959549,74.4883354,2025-11-23 23:00:00,12.0,15.0,4.6,93.0,1.9,278.0,Good
Penukonda,14.0846808,77.5966537,2025-11-23 23:00:00,4.8,5.1,4.5,57.0,1.4,215.0,Good
Pavagada,14.0994177,77.2804049,2025-11-23 23:00:00,4.8,5.1,4.7,57.0,1.6,219.0,Good
Sagara,14.1665017,75.0263852,2025-11-23 23:00:00,11.9,12.4,28.0,30.0,2.4,206.0,Good
Santebennur,14.1698888,76.0033586,2025-11-23 23:00:00,6.9,7.1,7.8,58.0,3.0,211.0,Good
Kothacheruvu,14.1870879,77.7671355,2025-11-23 23:00:00,4.8,5.1,4.5,57.0,1.4,210.0,Good
Talaguppa,14.2148828,74.911064,2025-11-23 23:00:00,15.0,15.9,28.8,33.0,2.6,205.0,Good
Honnali,14.2389785,75.6457434,2025-11-23 23:00:00,7.5,7.8,5.8,74.0,4.3,241.0,Good
Shikaripura,14.2639661,75.3587796,2025-11-23 23:00:00,8.6,8.8,14.4,56.0,3.0,207.0,Good
Honnavar,14.2810827,74.4446716,2025-11-23 23:00:00,17.2,20.1,9.3,89.0,2.9,281.0,Good
Challakere,14.3167885,76.6521533,2025-11-23 23:00:00,6.4,6.5,7.2,56.0,6.1,243.0,Good
Siddapura,14.3409562,74.8924253,2025-11-23 23:00:00,15.0,15.9,28.8,33.0,2.6,205.0,Good
Malebennuru,14.3533447,75.7384255,2025-11-23 23:00:00,7.5,7.8,5.8,74.0,4.3,235.0,Good
Siralkoppa,14.381916,75.2487921,2025-11-23 23:00:00,8.6,8.8,14.4,56.0,3.0,237.0,Good
Dharmavaram,14.4138405,77.7208432,2025-11-23 23:00:00,4.9,5.3,6.7,52.0,5.7,231.0,Good
Kumta,14.4271622,74.4117058,2025-11-23 23:00:00,17.2,20.1,9.3,89.0,2.9,392.0,Good
Kovur,14.5036085,79.9868404,2025-11-23 23:00:00,13.3,17.6,3.3,72.0,2.8,288.0,Good
Harihara,14.5116874,75.809288,2025-11-23 23:00:00,7.5,7.7,6.5,69.0,5.2,223.0,Good
Kalyandurg,14.5517958,77.1119702,2025-11-23 23:00:00,5.4,5.7,6.7,54.0,4.8,226.0,Good
Gokarna,14.5439629,74.3184418,2025-11-23 23:00:00,17.2,20.1,9.3,89.0,2.9,410.0,Good
Kamalapuram,14.5962938,78.6704194,2025-11-23 23:00:00,6.6,8.1,6.1,54.0,3.2,276.0,Good
Sirsi,14.6192362,74.8388611,2025-11-23 23:00:00,13.1,13.4,27.7,30.0,3.0,228.0,Good
Ranebennur,14.6165795,75.6341529,2025-11-23 23:00:00,6.7,7.0,8.9,65.0,5.2,208.0,Good
Byadagi,14.6719843,75.4858218,2025-11-23 23:00:00,6.7,7.0,8.9,65.0,5.2,207.0,Good
Ankola,14.6599889,74.3047846,2025-11-23 23:00:00,16.1,17.6,20.9,56.0,2.6,295.0,Good
Badvel,14.7433614,79.0610394,2025-11-23 23:00:00,8.1,10.3,5.6,51.0,1.0,254.0,Good
Harapanahalli,14.7880219,75.988032,2025-11-23 23:00:00,6.7,7.0,8.8,63.0,6.4,243.0,Good
Hanagalla,14.7653513,75.1244336,2025-11-23 23:00:00,8.5,8.7,13.0,55.0,3.7,218.0,Good
Haveri,14.7874825,75.3996731,2025-11-23 23:00:00,8.5,8.7,13.0,55.0,3.7,222.0,Good
Kotturu,14.8243692,76.2252832,2025-11-23 23:00:00,6.2,6.5,7.5,60.0,5.4,270.0,Good
Karwar,14.8120931,74.1319229,2025-11-23 23:00:00,20.0,22.2,4.6,117.0,3.8,344.0,Good
Ramapura,14.8812342,76.7822541,2025-11-23 23:00:00,6.4,6.7,7.9,54.0,5.7,265.0,Good
Bankapura,14.9217443,75.2639298,2025-11-23 23:00:00,8.5,8.7,13.0,55.0,3.7,227.0,Good
Uravakonda,14.9467802,77.2577907,2025-11-23 23:00:00,6.8,7.1,8.8,46.0,6.9,224.0,Good
Yellapura,14.9634438,74.7120788,2025-11-23 23:00:00,13.1,13.4,27.7,30.0,3.0,205.0,Good
Mundgod,14.9715262,75.0413079,2025-11-23 23:00:00,8.5,8.7,13.0,55.0,3.7,221.0,Good
Chagalamarri,14.9645072,78.5891171,2025-11-23 23:00:00,6.2,7.3,6.4,52.0,6.7,218.0,Good
Savanuru,14.9750243,75.3397064,2025-11-23 23:00:00,8.5,8.7,13.0,55.0,3.7,238.0,Good
Shiggaon,14.9899007,75.2234815,2025-11-23 23:00:00,8.5,8.7,13.0,55.0,3.7,237.0,Good
Huvina Hadagali,15.020624,75.9318973,2025-11-23 23:00:00,7.8,8.1,16.1,51.0,13.7,232.0,Good
Hagaribommanahalli,15.0468189,76.2117626,2025-11-23 23:00:00,7.2,7.6,13.7,52.0,11.6,303.0,Good
Pamuru,15.0944,79.4138,2025-11-23 23:00:00,11.5,14.8,4.7,59.0,1.6,239.0,Good
Lakshmeshvara,15.1248456,75.472885,2025-11-23 23:00:00,8.3,8.6,17.2,50.0,11.7,234.0,Good
Kalaghatagi,15.1818921,74.9718465,2025-11-23 23:00:00,12.0,12.3,18.7,45.0,5.0,229.0,Good
Mundaragi,15.2051817,75.8840183,2025-11-23 23:00:00,7.8,8.1,16.1,51.0,13.7,277.0,Good
Kandukur,15.213,79.9071,2025-11-23 23:00:00,13.4,17.8,2.1,80.0,1.2,230.0,Good
Shirahatti,15.234576,75.5791999,2025-11-23 23:00:00,8.3,8.6,17.2,50.0,11.7,225.0,Good
Kundagola,15.2565128,75.2478662,2025-11-23 23:00:00,9.8,10.1,16.5,48.0,7.1,226.0,Good
Kamalapura,15.3044681,76.4756219,2025-11-23 23:00:00,7.2,7.6,13.7,52.0,11.6,260.0,Good
Sirvel,15.3211685,78.5344897,2025-11-23 23:00:00,8.1,9.4,4.7,57.0,2.7,285.0,Good
Haliyal,15.3299733,74.7646665,2025-11-23 23:00:00,12.0,12.3,18.7,45.0,5.0,226.0,Good
Tanguturu,15.3401504,80.0393196,2025-11-23 23:00:00,13.4,17.8,2.1,80.0,1.2,237.0,Good
Kampli,15.4061695,76.604451,2025-11-23 23:00:00,8.6,9.1,8.0,57.0,3.5,275.0,Good
Kanigiri,15.4064336,79.5066283,2025-11-23 23:00:00,12.3,15.4,6.6,60.0,2.1,259.0,Good
Gadag-Betageri,15.4221812,75.6376639,2025-11-23 23:00:00,8.3,8.7,13.0,52.0,3.8,237.0,Good
Annigeri,15.4260116,75.4333351,2025-11-23 23:00:00,8.3,8.7,13.0,52.0,3.8,224.0,Good
Gangavathi,15.4308872,76.5319723,2025-11-23 23:00:00,9.0,9.4,12.3,51.0,6.7,285.0,Good
Dharwad,15.4540505,75.0066516,2025-11-23 23:00:00,8.9,9.4,12.3,50.0,1.7,234.0,Good
Holagunda,15.4884707,77.0462224,2025-11-23 23:00:00,7.5,7.9,5.4,62.0,1.3,286.0,Good
Tekkalakote,15.5337852,76.8772225,2025-11-23 23:00:00,8.6,9.1,8.0,57.0,3.5,323.0,Good
Valpoi,15.531466,74.1372751,2025-11-23 23:00:00,24.9,25.7,17.4,49.0,4.6,351.0,Good
Navalgund,15.5582208,75.3538481,2025-11-23 23:00:00,8.9,9.4,12.3,50.0,1.7,227.0,Good
Kanakagiri,15.5696792,76.4189879,2025-11-23 23:00:00,9.0,9.4,12.3,51.0,6.7,233.0,Good
Naregalla,15.5736978,75.8078454,2025-11-23 23:00:00,8.6,9.1,14.0,50.0,6.1,245.0,Good
Sankhali,15.5626483,74.0114543,2025-11-23 23:00:00,24.9,25.7,17.4,49.0,4.6,468.0,Good
Kitturu,15.5993334,74.7878902,2025-11-23 23:00:00,9.6,10.0,13.0,54.0,2.3,256.0,Good
Adoni,15.6261417,77.2723701,2025-11-23 23:00:00,7.5,7.9,5.4,62.0,1.3,285.0,Good
Yelburga,15.6152511,76.0127786,2025-11-23 23:00:00,8.6,9.1,14.0,50.0,6.1,265.0,Good
Siruguppa,15.6345569,76.8937407,2025-11-23 23:00:00,8.6,9.1,8.0,57.0,3.5,365.0,Good
Ron,15.6996944,75.7349912,2025-11-23 23:00:00,8.3,8.7,13.0,52.0,3.8,227.0,Good
Pernem,15.7166084,73.7972383,2025-11-23 23:00:00,24.8,26.4,5.2,123.0,5.1,314.0,Good
Naragunda,15.7220381,75.3846247,2025-11-23 23:00:00,8.9,9.4,12.3,50.0,1.7,223.0,Good
Gajendragad,15.7322026,75.9644618,2025-11-23 23:00:00,8.6,9.1,14.0,50.0,6.1,261.0,Good
Kushtagi,15.7571579,76.190682,2025-11-23 23:00:00,8.6,9.1,14.0,50.0,6.1,227.0,Good
Turavihala,15.7620689,76.5976263,2025-11-23 23:00:00,9.0,9.4,12.3,51.0,6.7,254.0,Good
Yemmiganuru,15.7680956,77.4819037,2025-11-23 23:00:00,7.2,7.8,4.9,60.0,1.4,253.0,Good
Savadatti,15.7671818,75.1174834,2025-11-23 23:00:00,8.9,9.4,12.3,50.0,1.7,231.0,Good
Sindhanur,15.7692192,76.7549604,2025-11-23 23:00:00,8.6,9.1,8.0,57.0,3.5,259.0,Good
Vetapalem,15.7807768,80.3070955,2025-11-23 23:00:00,13.5,17.4,1.9,90.0,2.6,244.0,Good
Banda,15.8136549,73.8634219,2025-11-23 23:00:00,30.0,31.2,22.2,41.0,4.6,346.0,Good
Bailahongala,15.816422,74.8568692,2025-11-23 23:00:00,9.8,10.4,13.0,57.0,1.6,282.0,Good
Mantralayam,15.9413643,77.4236981,2025-11-23 23:00:00,9.0,9.5,4.1,63.0,1.8,265.0,Good
Munavalli,15.8537336,75.1201998,2025-11-23 23:00:00,10.3,10.9,12.3,55.0,1.5,277.0,Good
Nandikotkur,15.8562,78.27,2025-11-23 23:00:00,12.0,12.8,6.2,59.0,2.5,274.0,Good
Vengurla,15.8619866,73.6321565,2025-11-23 23:00:00,28.5,29.5,7.3,106.0,6.0,309.0,Good
Muragod,15.8910179,74.9310127,2025-11-23 23:00:00,9.8,10.4,13.0,57.0,1.6,339.0,Good
Sawantwadi,15.9079601,73.8205306,2025-11-23 23:00:00,30.0,31.2,22.2,41.0,4.6,334.0,Good
Ilakal,15.9598085,76.11564,2025-11-23 23:00:00,10.6,11.1,12.5,54.0,3.4,234.0,Good
Manvi,15.9967483,77.0481181,2025-11-23 23:00:00,9.1,9.5,5.9,61.0,1.2,234.0,Good
Aiza,16.0154973,77.6665729,2025-11-23 23:00:00,9.0,9.5,4.1,63.0,1.8,244.0,Good
Kudal,16.0087654,73.6871941,2025-11-23 23:00:00,28.5,29.5,7.3,106.0,6.0,327.0,Good
Mudagal,16.012447,76.4410153,2025-11-23 23:00:00,10.6,11.1,10.6,55.0,2.8,237.0,Good
Hunagund,16.0618821,76.0603359,2025-11-23 23:00:00,10.6,11.1,12.5,54.0,3.4,247.0,Good
Kavitala,16.1074146,76.7943062,2025-11-23 23:00:00,10.5,11.0,9.2,54.0,1.6,236.0,Good
Lingasugur,16.1563,76.5242,2025-11-23 23:00:00,10.6,11.1,10.6,55.0,2.8,228.0,Good
Lokapura,16.1627427,75.3685939,2025-11-23 23:00:00,10.3,10.9,12.3,55.0,1.5,425.0,Good
Siravara,16.1753157,77.02154,2025-11-23 23:00:00,9.1,9.5,5.9,61.0,1.2,279.0,Good
Gokak,16.1693033,74.8224338,2025-11-23 23:00:00,9.8,10.4,13.0,57.0,1.6,415.0,Good
Raichur,16.1983225,77.3527444,2025-11-23 23:00:00,9.1,9.5,5.9,61.0,1.2,264.0,Good
Gadahinglaj,16.2236857,74.3515888,2025-11-23 23:00:00,32.4,33.5,33.0,41.0,7.0,377.0,Satisfactory
Tenali,16.2377735,80.6464219,2025-11-23 23:00:00,21.0,23.1,7.4,70.0,5.4,309.0,Good
Hukkeri,16.230857,74.6029767,2025-11-23 23:00:00,15.4,16.0,14.4,57.0,3.0,393.0,Good
Sankeshwara,16.2595741,74.4843495,2025-11-23 23:00:00,32.4,33.5,33.0,41.0,7.0,343.0,Satisfactory
Kankavali,16.2659486,73.7100588,2025-11-23 23:00:00,28.6,29.3,8.2,102.0,8.0,357.0,Good
Gargoti,16.3159183,74.1442177,2025-11-23 23:00:00,45.8,47.0,37.2,46.0,9.0,630.0,Satisfactory
Bilagi,16.3464175,75.6190861,2025-11-23 23:00:00,13.0,13.6,9.4,61.0,4.1,429.0,Good
Muddebihala,16.3351078,76.1339556,2025-11-23 23:00:00,14.5,15.2,11.0,62.0,7.5,297.0,Good
Mudhol,16.3338591,75.2870794,2025-11-23 23:00:00,12.1,12.8,10.0,61.0,2.5,407.0,Good
Vuyyuru,16.3649657,80.8426132,2025-11-23 23:00:00,21.0,23.1,7.4,70.0,5.4,305.0,Good
Mahalingapura,16.3879888,75.1115893,2025-11-23 23:00:00,12.1,12.8,10.0,61.0,2.5,381.0,Good
Nippani,16.4020402,74.3842372,2025-11-23 23:00:00,32.4,33.5,33.0,41.0,7.0,347.0,Satisfactory
Devadurga,16.4210218,76.9330038,2025-11-23 23:00:00,13.8,14.4,12.4,54.0,8.1,271.0,Good
Chikkodi,16.4265276,74.5861323,2025-11-23 23:00:00,32.4,33.5,33.0,41.0,7.0,310.0,Satisfactory
Gudivada,16.4330413,80.9936856,2025-11-23 23:00:00,21.0,23.1,7.4,70.0,5.4,308.0,Good
Kolahara,16.4719099,75.695105,2025-11-23 23:00:00,13.0,13.6,9.4,61.0,4.1,328.0,Good
Narasapuram,16.4386399,81.7014603,2025-11-23 23:00:00,23.1,26.3,3.5,93.0,3.7,334.0,Good
Hunasagi,16.4579407,76.5170932,2025-11-23 23:00:00,14.7,15.4,12.9,59.0,10.1,291.0,Good
Talikoti,16.474468,76.311706,2025-11-23 23:00:00,14.7,15.4,12.9,59.0,10.1,311.0,Good
Rabakavi Banahatti,16.4787444,75.1201255,2025-11-23 23:00:00,12.1,12.8,10.0,61.0,2.5,379.0,Good
Mangalagiri,16.4318209,80.5688069,2025-11-23 23:00:00,22.4,23.7,9.7,65.0,8.9,307.0,Good
Piduguralla,16.4822329,79.8856947,2025-11-23 23:00:00,23.5,24.3,13.9,57.0,8.3,326.0,Good
Rayabag,16.4916168,74.7741341,2025-11-23 23:00:00,15.4,16.0,14.4,57.0,3.0,337.0,Good
Teradala,16.4936178,75.0468551,2025-11-23 23:00:00,12.1,12.8,10.0,61.0,2.5,360.0,Good
Tadepalle,16.4791081,80.61834,2025-11-23 23:00:00,21.0,23.1,7.4,70.0,5.4,314.0,Good
Jamakhandi,16.503896,75.2910386,2025-11-23 23:00:00,12.1,12.8,10.0,61.0,2.5,349.0,Good
Makhtal,16.5010823,77.5133174,2025-11-23 23:00:00,12.2,12.7,5.1,58.0,2.6,267.0,Good
Surapura,16.5208523,76.7591995,2025-11-23 23:00:00,13.8,14.4,12.4,54.0,8.1,300.0,Good
Kaikaluru,16.5511918,81.213131,2025-11-23 23:00:00,20.0,21.7,3.9,77.0,3.1,360.0,Good
Bhimavaram,16.5427689,81.527344,2025-11-23 23:00:00,23.1,26.3,3.5,93.0,3.7,373.0,Good
Gannavaram,16.5407546,80.8051601,2025-11-23 23:00:00,21.0,23.1,7.4,70.0,5.4,303.0,Good
Gurazala,16.5589293,79.6368235,2025-11-23 23:00:00,18.6,19.8,12.1,59.0,5.7,287.0,Good
Basavana Bagevadi,16.5738547,75.9747123,2025-11-23 23:00:00,14.5,15.2,11.0,62.0,7.5,370.0,Good
Kagal,16.5750891,74.3152571,2025-11-23 23:00:00,32.4,33.5,33.0,41.0,7.0,391.0,Satisfactory
Akividu,16.582052,81.3732748,2025-11-23 23:00:00,20.0,21.7,3.9,77.0,3.1,382.0,Good
Dachepalli,16.5932206,79.7363829,2025-11-23 23:00:00,18.6,19.8,12.1,59.0,5.7,318.0,Good
Mummidivaram,16.6442012,82.1078853,2025-11-23 23:00:00,27.5,29.3,7.4,83.0,5.3,339.0,Good
Managoli,16.6523998,75.8127383,2025-11-23 23:00:00,17.0,17.7,10.6,62.0,8.1,278.0,Good
Kembhavi,16.6513126,76.5325062,2025-11-23 23:00:00,18.2,19.0,13.3,57.0,11.4,372.0,Good
Kurundwad,16.6810968,74.5915436,2025-11-23 23:00:00,39.0,39.8,28.9,39.0,8.7,301.0,Satisfactory
Shahapura,16.6991627,76.8410045,2025-11-23 23:00:00,19.7,20.5,18.2,48.0,10.7,298.0,Good
Gogi,16.73202,76.747477,2025-11-23 23:00:00,19.7,20.5,18.2,48.0,10.7,306.0,Good
Narayanpet,16.7477612,77.4949954,2025-11-23 23:00:00,17.1,17.6,6.9,55.0,3.4,316.0,Good
Mahbubnagar,16.7434538,77.9923191,2025-11-23 23:00:00,18.6,19.2,6.3,64.0,4.4,291.0,Good
Yadgiri,16.7670964,77.1403984,2025-11-23 23:00:00,17.9,18.5,14.8,44.0,5.1,321.0,Good
Jaysingpur,16.7789886,74.5564244,2025-11-23 23:00:00,39.0,39.8,28.9,39.0,8.7,291.0,Satisfactory
Nandigama,16.7734733,80.2855279,2025-11-23 23:00:00,22.2,23.1,7.1,74.0,9.0,310.0,Good
Gurumathakal,16.8679694,77.3929333,2025-11-23 23:00:00,17.9,18.5,14.8,44.0,5.1,312.0,Good
Tadepallegudem,16.8165294,81.5296984,2025-11-23 23:00:00,29.2,30.7,10.8,66.0,6.6,383.0,Good
Devara Hipparagi,16.8159903,76.0650583,2025-11-23 23:00:00,17.0,17.7,10.6,62.0,8.1,394.0,Good
Miraj,16.8190307,74.6432382,2025-11-23 23:00:00,16.4,17.1,13.5,60.0,3.5,291.0,Good
Vijayapura,16.8269911,75.7175387,2025-11-23 23:00:00,15.0,15.7,8.5,67.0,4.9,808.0,Good
Tikota,16.8431559,75.5226828,2025-11-23 23:00:00,15.0,15.7,8.5,67.0,4.9,337.0,Good
Lanja,16.8589596,73.5486886,2025-11-23 23:00:00,31.0,31.5,6.7,97.0,9.4,327.0,Satisfactory
Sangli,16.8502534,74.5948885,2025-11-23 23:00:00,39.0,39.8,28.9,39.0,8.7,283.0,Satisfactory
Miryalaguda,16.8710119,79.5617353,2025-11-23 23:00:00,30.9,31.8,14.4,57.0,13.2,428.0,Satisfactory
Jaggayyapeta,16.8930111,80.098646,2025-11-23 23:00:00,27.8,28.6,12.0,59.0,14.2,364.0,Good
Sindagi,16.9194778,76.2350305,2025-11-23 23:00:00,18.2,19.0,13.3,57.0,11.4,452.0,Good
Vissannapeta,16.9418867,80.783779,2025-11-23 23:00:00,21.7,22.9,6.9,76.0,6.5,313.0,Good
Ashta,16.9452,74.4071,2025-11-23 23:00:00,39.0,39.8,28.9,39.0,8.7,329.0,Satisfactory
Kodada,16.9947802,79.9749826,2025-11-23 23:00:00,27.8,28.6,12.0,59.0,14.2,377.0,Good
Ratnagiri,16.9933521,73.2954371,2025-11-23 23:00:00,45.2,46.4,2.6,180.0,12.5,332.0,Satisfactory
Jevaragi,17.0121947,76.7752353,2025-11-23 23:00:00,21.2,22.3,16.9,57.0,6.8,337.0,Good
Jath,17.0489913,75.21771,2025-11-23 23:00:00,15.3,16.1,6.3,78.0,4.2,284.0,Good
Wadi,17.0471835,76.9921386,2025-11-23 23:00:00,21.2,22.3,16.9,57.0,6.8,294.0,Good
Chintalapudi,17.0687339,80.9848668,2025-11-23 23:00:00,21.8,22.7,6.8,80.0,7.0,350.0,Good
Peddapuram,17.0756736,82.1433164,2025-11-23 23:00:00,27.2,29.0,6.6,83.0,4.5,375.0,Good
Shahabad,17.1241133,76.9418923,2025-11-23 23:00:00,21.2,22.3,16.9,57.0,6.8,444.0,Good
Jangareddygudem,17.1238205,81.2959633,2025-11-23 23:00:00,25.7,26.8,8.9,73.0,6.2,374.0,Good
Chittapura,17.1196144,77.0858642,2025-11-23 23:00:00,24.6,25.7,19.2,51.0,7.9,411.0,Good
Korukonda,17.1687627,81.8297169,2025-11-23 23:00:00,27.2,29.0,6.6,83.0,4.5,328.0,Good
Indi,17.1744599,75.9553764,2025-11-23 23:00:00,18.5,19.4,10.3,62.0,6.6,712.0,Good
Sedam,17.1772683,77.2823552,2025-11-23 23:00:00,24.6,25.7,19.2,51.0,7.9,468.0,Good
Afzalpur,17.2005764,76.3605783,2025-11-23 23:00:00,19.0,20.0,13.0,59.0,7.1,373.0,Good
Kusumanchi,17.225571,79.9554551,2025-11-23 23:00:00,52.5,53.7,25.7,54.0,18.7,430.0,Satisfactory
Chityal,17.2314588,79.1293471,2025-11-23 23:00:00,46.4,48.0,11.2,82.0,10.3,377.0,Satisfactory
Yeleswaram,17.2872691,82.1052362,2025-11-23 23:00:00,27.2,29.0,6.6,83.0,4.5,326.0,Good
Kalaburagi,17.3310003,76.8334228,2025-11-23 23:00:00,21.2,22.3,16.9,57.0,6.8,358.0,Good
Hyderabad,17.360589,78.4740613,2025-11-23 23:00:00,29.2,30.3,16.8,73.0,11.3,504.0,Good
Maindargi,17.4566199,76.2944772,2025-11-23 23:00:00,17.9,19.0,9.7,77.0,4.7,423.0,Good
Sangole,17.4362688,75.1932291,2025-11-23 23:00:00,16.9,17.8,5.5,86.0,5.3,383.0,Good
Rampachodavaram,17.439828,81.7752354,2025-11-23 23:00:00,21.4,22.4,9.0,58.0,3.7,326.0,Good
Chincholi,17.465199,77.4189669,2025-11-23 23:00:00,24.3,25.1,10.4,71.0,7.7,350.0,Good
Guhagar,17.4838362,73.191061,2025-11-23 23:00:00,57.0,58.1,7.3,157.0,18.0,431.0,Satisfactory
Mangalwedha,17.5128795,75.4486224,2025-11-23 23:00:00,18.1,19.1,7.0,75.0,5.7,437.0,Good
Akkalkot,17.5261113,76.2059338,2025-11-23 23:00:00,17.9,19.0,9.7,77.0,4.7,485.0,Good
Chiplun,17.5330311,73.5123013,2025-11-23 23:00:00,39.0,39.8,12.8,72.0,9.9,475.0,Satisfactory
Rajavommangi,17.5444104,82.2357592,2025-11-23 23:00:00,43.4,44.8,11.0,64.0,8.2,359.0,Satisfactory
Kohir,17.5996678,77.7169218,2025-11-23 23:00:00,24.3,25.1,10.4,71.0,7.7,367.0,Good
Palwancha,17.5976713,80.7057072,2025-11-23 23:00:00,21.2,22.2,7.6,63.0,4.6,364.0,Good
Rahimatpur,17.5909766,74.1990559,2025-11-23 23:00:00,46.7,47.7,28.5,52.0,8.8,524.0,Satisfactory
Solapur,17.6699734,75.9008118,2025-11-23 23:00:00,18.8,19.8,9.1,71.0,5.6,598.0,Good
Pandharpur,17.677817,75.3340992,2025-11-23 23:00:00,16.9,17.8,5.5,86.0,5.3,757.0,Good
Narsipatnam,17.6711811,82.6124371,2025-11-23 23:00:00,57.3,59.0,22.3,41.0,10.5,737.0,Satisfactory
Satara,17.688321,74.0041726,2025-11-23 23:00:00,46.7,47.7,28.5,52.0,8.8,690.0,Satisfactory
Koregaon,17.7004918,74.1580401,2025-11-23 23:00:00,46.7,47.7,28.5,52.0,8.8,399.0,Satisfactory
Chittaguppa,17.6985069,77.2161692,2025-11-23 23:00:00,21.2,22.1,11.3,72.0,6.1,391.0,Good
Khed,17.7184198,73.3956694,2025-11-23 23:00:00,57.0,58.1,7.3,157.0,18.0,405.0,Satisfactory
Visakhapatnam,17.6935526,83.2921297,2025-11-23 23:00:00,44.4,47.5,28.4,86.0,8.2,625.0,Satisfactory
Dapoli,17.7580463,73.1887078,2025-11-23 23:00:00,57.0,58.1,7.3,157.0,18.0,462.0,Satisfactory
Humanabad,17.7717915,77.128494,2025-11-23 23:00:00,21.2,22.1,11.3,72.0,6.1,376.0,Good
Wardhannapet,17.7733267,79.5761394,2025-11-23 23:00:00,68.7,70.1,22.0,57.0,12.9,483.0,Moderate
Sabbavaram,17.7905129,83.1244927,2025-11-23 23:00:00,44.4,47.5,28.4,86.0,8.2,486.0,Satisfactory
Konta,17.8110113,81.3830211,2025-11-23 23:00:00,20.6,21.6,7.2,47.0,2.7,367.0,Good
Mohol,17.8091566,75.6443849,2025-11-23 23:00:00,21.3,22.1,7.7,70.0,4.9,465.0,Good
Naldurg,17.8149863,76.278965,2025-11-23 23:00:00,18.3,18.9,7.9,78.0,3.7,298.0,Good
Chodavaram,17.8296788,82.9344845,2025-11-23 23:00:00,50.1,51.5,15.6,56.0,6.8,429.0,Satisfactory
Tupran,17.8406731,78.4777406,2025-11-23 23:00:00,32.8,33.6,10.2,81.0,8.9,314.0,Satisfactory
Umarga,17.8365426,76.6250052,2025-11-23 23:00:00,19.5,20.1,10.2,74.0,4.0,358.0,Good
Chintapalli,17.8706618,82.351824,2025-11-23 23:00:00,32.2,32.9,9.5,44.0,5.3,434.0,Satisfactory
Ghanpur,17.8520633,79.3766411,2025-11-23 23:00:00,45.3,46.4,8.3,120.0,12.9,393.0,Satisfactory
Gajwel,17.8456745,78.6828741,2025-11-23 23:00:00,40.7,41.8,11.1,105.0,11.5,323.0,Satisfactory
Basavakalyan,17.8694654,76.9518062,2025-11-23 23:00:00,19.5,20.1,10.2,74.0,4.0,368.0,Good
Bidar,17.9166022,77.511315,2025-11-23 23:00:00,24.3,25.0,10.1,72.0,5.7,437.0,Good
Panchgani,17.9239543,73.7992681,2025-11-23 23:00:00,46.6,47.4,20.5,76.0,13.2,346.0,Satisfactory
Phaltan,17.9907746,74.4298834,2025-11-23 23:00:00,69.2,70.3,64.4,22.0,14.4,433.0,Moderate
Tuljapur,18.0086617,76.0707924,2025-11-23 23:00:00,19.3,20.0,7.0,76.0,4.3,378.0,Good
Bhalki,18.0484556,77.2176221,2025-11-23 23:00:00,21.4,22.1,11.9,71.0,4.6,362.0,Good
Lasurne,18.0876323,74.7656871,2025-11-23 23:00:00,32.2,33.2,21.1,65.0,7.4,469.0,Satisfactory
Indapur,18.1171342,75.0262819,2025-11-23 23:00:00,22.6,23.3,10.1,72.0,4.8,511.0,Good
Vizianagaram,18.1141255,83.4114389,2025-11-23 23:00:00,45.6,48.5,7.1,113.0,7.7,638.0,Satisfactory
Paderu,18.0791533,82.6632234,2025-11-23 23:00:00,50.1,51.5,15.6,56.0,6.8,284.0,Satisfactory
Nilanga,18.1291893,76.7494127,2025-11-23 23:00:00,19.5,20.1,10.2,74.0,4.0,396.0,Good
Huzurabad,18.2018461,79.3956971,2025-11-23 23:00:00,75.0,75.7,24.9,64.0,13.8,579.0,Moderate
Parkal,18.1980527,79.7010375,2025-11-23 23:00:00,75.7,76.8,22.9,79.0,19.8,566.0,Moderate
Ausa,18.2510243,76.500958,2025-11-23 23:00:00,19.6,20.0,5.9,82.0,4.2,383.0,Good
Aurad,18.2548557,77.4151663,2025-11-23 23:00:00,31.5,32.1,9.4,70.0,8.9,372.0,Satisfactory
Srikakulam,18.2949307,83.8938844,2025-11-23 23:00:00,53.3,56.1,8.0,113.0,9.8,657.0,Satisfactory
Chipurupalle,18.3120723,83.5686458,2025-11-23 23:00:00,54.4,56.5,13.6,82.0,8.8,564.0,Satisfactory
Murud,18.3220393,72.9604835,2025-11-23 23:00:00,69.2,70.3,13.6,151.0,26.0,516.0,Moderate
Malakanagiri,18.3640874,81.8887516,2025-11-23 23:00:00,20.8,21.9,19.2,24.0,2.3,434.0,Good
Sukma,18.3932222,81.6569457,2025-11-23 23:00:00,21.5,22.6,11.4,39.0,2.7,479.0,Good
Udgir,18.3921349,77.1196118,2025-11-23 23:00:00,26.4,26.9,8.8,74.0,6.8,365.0,Good
Sircilla,18.3897573,78.8085973,2025-11-23 23:00:00,52.0,53.0,13.1,100.0,16.2,526.0,Satisfactory
Latur,18.3982273,76.5625913,2025-11-23 23:00:00,19.6,20.0,5.9,82.0,4.2,333.0,Good
Narasannapeta,18.4150974,84.0446974,2025-11-23 23:00:00,53.3,56.1,8.0,113.0,9.8,619.0,Satisfactory
Salur,18.517553,83.2050385,2025-11-23 23:00:00,49.0,50.6,13.9,66.0,7.7,372.0,Satisfactory
Degloor,18.5496593,77.5790877,2025-11-23 23:00:00,31.5,32.1,9.4,70.0,8.9,526.0,Satisfactory
Palakonda,18.6036798,83.7559931,2025-11-23 23:00:00,50.3,51.9,16.0,60.0,6.0,438.0,Satisfactory
Peddapalli,18.6177235,79.3868069,2025-11-23 23:00:00,97.3,98.0,24.3,66.0,34.4,493.0,Poor
Nizamabad,18.6732693,78.0978477,2025-11-23 23:00:00,40.2,40.9,9.8,70.0,16.5,457.0,Satisfactory
Mukhed,18.7057087,77.3686564,2025-11-23 23:00:00,28.4,28.9,6.2,73.0,8.6,507.0,Good
Bodhan,18.6536941,77.8936802,2025-11-23 23:00:00,40.2,40.9,9.8,70.0,16.5,450.0,Satisfactory
Kaij,18.7141179,76.0651612,2025-11-23 23:00:00,19.8,20.1,7.5,75.0,8.0,373.0,Good
Ambajogai,18.7318232,76.3854836,2025-11-23 23:00:00,20.2,20.5,6.5,78.0,5.1,337.0,Good
Talegaon Dabhade,18.7337107,73.6728593,2025-11-23 23:00:00,65.0,65.7,29.5,106.0,20.2,791.0,Moderate
Patoda,18.805051,75.4830621,2025-11-23 23:00:00,20.7,21.0,6.2,82.0,10.4,296.0,Good
Palasa-Kasibugga,18.7694542,84.4179944,2025-11-23 23:00:00,50.6,53.0,7.7,92.0,7.2,398.0,Satisfactory
Bijapur,18.7935679,80.815939,2025-11-23 23:00:00,15.4,15.9,1.6,61.0,2.6,248.0,Good
Jagtial,18.7957081,78.9161959,2025-11-23 23:00:00,81.7,82.7,20.6,68.0,27.7,491.0,Moderate
Ashti,18.8035447,75.1714406,2025-11-23 23:00:00,20.3,20.7,4.6,93.0,9.5,305.0,Good
Dharur,18.8204315,76.1137332,2025-11-23 23:00:00,19.8,20.1,7.5,75.0,8.0,351.0,Good
Shirur,18.8265886,74.3725252,2025-11-23 23:00:00,25.5,26.0,13.2,54.0,4.3,403.0,Good
Metpalli,18.8488213,78.6258901,2025-11-23 23:00:00,81.7,82.7,20.6,68.0,27.7,421.0,Moderate
Parli,18.8485632,76.5297124,2025-11-23 23:00:00,20.2,20.5,6.5,78.0,5.1,338.0,Good
Kandhar,18.8718185,77.1924092,2025-11-23 23:00:00,28.4,28.9,6.2,73.0,8.6,478.0,Good
Uran,18.8808,72.9386,2025-11-23 23:00:00,78.2,79.4,24.6,146.0,36.4,893.0,Moderate
Dharmabad,18.8915074,77.8438253,2025-11-23 23:00:00,40.2,40.9,9.8,70.0,16.5,447.0,Satisfactory
Sompeta,18.9424871,84.5839641,2025-11-23 23:00:00,50.6,53.0,7.7,92.0,7.2,410.0,Satisfactory
Gangakhed,18.9692648,76.7504256,2025-11-23 23:00:00,23.5,23.9,4.6,81.0,6.0,392.0,Good
Beed,18.9904059,75.7542291,2025-11-23 23:00:00,20.7,21.0,6.2,82.0,10.4,336.0,Good
Wadwani,18.9906344,76.0410132,2025-11-23 23:00:00,19.8,20.1,7.5,75.0,8.0,363.0,Good
Sonpeth,19.0258671,76.4746527,2025-11-23 23:00:00,30.4,30.7,9.4,65.0,6.8,407.0,Satisfactory
Neral,19.0266373,73.3181185,2025-11-23 23:00:00,74.0,74.7,36.2,88.0,29.9,801.0,Moderate
Bellampalli,19.0639032,79.4873121,2025-11-23 23:00:00,21.5,22.2,8.9,64.0,4.1,341.0,Good
Ichchapuram,19.1127045,84.6887188,2025-11-23 23:00:00,58.6,61.2,7.3,114.0,10.4,530.0,Satisfactory
Kutru,19.0932122,80.7904019,2025-11-23 23:00:00,17.8,18.4,3.3,52.0,3.3,246.0,Good
Ahilyanagar,19.092952,74.7493451,2025-11-23 23:00:00,24.5,25.0,10.1,72.0,5.0,391.0,Good
Rayagada,19.1696,83.418,2025-11-23 23:00:00,34.7,35.5,24.9,38.0,4.4,386.0,Satisfactory
Nabarangapur,19.232359,82.5494484,2025-11-23 23:00:00,28.8,29.2,4.7,93.0,6.9,463.0,Good
Bhiwandi,19.3025562,73.0588072,2025-11-23 23:00:00,74.0,74.7,36.2,88.0,29.9,728.0,Moderate
Utnur,19.369594,78.7736687,2025-11-23 23:00:00,46.0,46.6,15.2,83.0,12.3,344.0,Satisfactory
Asifabad,19.3593461,79.2960404,2025-11-23 23:00:00,36.0,36.6,10.3,93.0,13.7,452.0,Satisfactory
Ghodegaon,19.3496722,74.8811801,2025-11-23 23:00:00,24.5,25.0,10.1,72.0,5.0,331.0,Good
Rahuri,19.3891776,74.6499061,2025-11-23 23:00:00,24.5,25.0,10.1,72.0,5.0,496.0,Good
Himayatnagar,19.4259433,77.8768022,2025-11-23 23:00:00,40.0,40.5,11.6,85.0,11.5,321.0,Satisfactory
Selu,19.4548608,76.4388052,2025-11-23 23:00:00,31.3,31.7,10.7,56.0,6.9,540.0,Satisfactory
Aundah,19.5408846,77.0408752,2025-11-23 23:00:00,27.9,28.3,5.7,76.0,8.4,349.0,Good
Akole,19.5419344,74.0092582,2025-11-23 23:00:00,36.7,37.1,14.6,80.0,9.3,582.0,Satisfactory
Partur,19.5856691,76.2139769,2025-11-23 23:00:00,31.3,31.7,10.7,56.0,6.9,551.0,Satisfactory
Kondagaon,19.5885769,81.6628742,2025-11-23 23:00:00,22.6,22.9,5.4,81.0,6.3,309.0,Good
Asika,19.6060868,84.6724523,2025-11-23 23:00:00,68.9,70.8,17.6,63.0,10.7,819.0,Moderate
Kinwat,19.6211721,78.2003138,2025-11-23 23:00:00,48.7,49.0,18.1,92.0,13.7,354.0,Satisfactory
Mantha,19.6443869,76.3869764,2025-11-23 23:00:00,31.3,31.7,10.7,56.0,6.9,542.0,Satisfactory
Palghar,19.6978751,72.7686942,2025-11-23 23:00:00,72.2,72.9,11.2,126.0,35.0,732.0,Moderate
Hingoli,19.7158472,77.1388362,2025-11-23 23:00:00,27.9,28.3,5.7,76.0,8.4,378.0,Good
Gangapur,19.6977616,75.0124415,2025-11-23 23:00:00,21.8,22.3,5.2,82.0,4.3,618.0,Good
Rajura,19.7792814,79.3657272,2025-11-23 23:00:00,49.6,50.1,17.6,89.0,18.4,603.0,Satisfactory
Puri,19.8076083,85.8252538,2025-11-23 23:00:00,72.4,74.7,6.9,130.0,22.1,478.0,Moderate
Jalna,19.8393394,75.8818806,2025-11-23 23:00:00,29.2,29.5,12.5,74.0,9.4,364.0,Good
Junagarh,19.8610794,82.9353189,2025-11-23 23:00:00,71.9,72.4,14.3,87.0,15.6,454.0,Moderate
Chhatrapati Sambhaji Nagar,19.877263,75.3390241,2025-11-23 23:00:00,25.0,25.6,9.8,70.0,5.9,518.0,Good
Kopargaon,19.885,74.4762,2025-11-23 23:00:00,35.3,35.9,14.3,67.0,9.8,487.0,Satisfactory
Pusad,19.9080759,77.5706555,2025-11-23 23:00:00,33.8,34.1,6.9,100.0,11.3,389.0,Satisfactory
Vaijapur,19.9266272,74.7286135,2025-11-23 23:00:00,26.1,26.9,8.5,67.0,6.2,367.0,Good
Deolali,19.9380426,73.8567115,2025-11-23 23:00:00,47.0,47.4,15.6,69.0,11.8,534.0,Satisfactory
Chandrapur,19.9508161,79.2986673,2025-11-23 23:00:00,50.8,51.5,17.4,73.0,11.8,651.0,Satisfactory
Sindkhed Raja,19.9540802,76.1257663,2025-11-23 23:00:00,29.2,29.5,12.5,74.0,9.4,383.0,Good
Risod,19.9778005,76.7897566,2025-11-23 23:00:00,26.1,26.3,5.8,84.0,9.4,369.0,Good
Lonar,19.9850956,76.5226964,2025-11-23 23:00:00,27.6,27.9,8.1,78.0,10.7,405.0,Good
Dahanu,19.9887244,72.733848,2025-11-23 23:00:00,77.5,78.5,15.5,103.0,42.5,655.0,Moderate
Pakhanjur,20.0387175,80.6244334,2025-11-23 23:00:00,31.2,32.0,8.5,56.0,6.4,422.0,Satisfactory
Nashik,20.0112475,73.7902364,2025-11-23 23:00:00,51.0,51.3,24.8,63.0,12.3,604.0,Satisfactory
Deulgaon Raja,20.0151691,76.0353471,2025-11-23 23:00:00,29.2,29.5,12.5,74.0,9.4,378.0,Good
Yeola,20.0429079,74.4880389,2025-11-23 23:00:00,35.3,35.9,14.3,67.0,9.8,387.0,Satisfactory
Arni,20.0653876,77.9519923,2025-11-23 23:00:00,38.3,38.6,10.6,92.0,10.4,469.0,Satisfactory
Wani,20.0574,78.9565,2025-11-23 23:00:00,49.6,50.2,16.2,88.0,12.6,727.0,Satisfactory
Mul,20.0651224,79.6767277,2025-11-23 23:00:00,33.2,34.0,9.2,74.0,6.9,531.0,Satisfactory
Ranpur,20.0632415,85.3444328,2025-11-23 23:00:00,72.2,74.0,12.0,82.0,10.9,519.0,Moderate
Digras,20.1041813,77.7167937,2025-11-23 23:00:00,33.8,34.1,6.9,100.0,11.3,382.0,Satisfactory
Washim,20.1029211,77.1353872,2025-11-23 23:00:00,26.8,27.1,5.8,89.0,9.8,331.0,Good
Ghatanji,20.1427699,78.3140429,2025-11-23 23:00:00,44.6,45.1,15.6,93.0,11.2,448.0,Satisfactory
Kesinga,20.1903644,83.2196816,2025-11-23 23:00:00,57.4,58.0,15.8,82.0,14.4,491.0,Satisfactory
Jafarabad,20.1957484,76.0105856,2025-11-23 23:00:00,29.2,29.5,12.5,74.0,9.4,373.0,Good
Malegaon,20.2367604,76.9998051,2025-11-23 23:00:00,27.3,27.5,7.5,96.0,12.5,371.0,Good
Warora,20.2342965,79.0027504,2025-11-23 23:00:00,43.4,44.6,6.7,86.0,10.6,572.0,Satisfactory
Kannad,20.2654298,75.1322409,2025-11-23 23:00:00,31.8,32.5,11.5,64.0,9.5,389.0,Satisfactory
Silvassa,20.2736768,73.0045787,2025-11-23 23:00:00,67.3,67.8,14.7,84.0,27.0,1257.0,Moderate
Khandapada,20.2637344,85.1713704,2025-11-23 23:00:00,73.3,74.5,22.7,55.0,21.4,548.0,Moderate
Titlagarh,20.288849,83.1552029,2025-11-23 23:00:00,82.0,82.7,19.3,65.0,17.4,556.0,Moderate
Chandvad,20.3278147,74.2387228,2025-11-23 23:00:00,40.0,40.7,11.7,81.0,12.2,448.0,Satisfactory
Chikhli,20.349113,76.2524987,2025-11-23 23:00:00,27.5,27.7,7.3,104.0,17.5,360.0,Good
Vapi,20.371603,72.9166501,2025-11-23 23:00:00,82.7,83.6,23.0,88.0,52.8,1162.0,Moderate
Yavatmal,20.390344,78.1328518,2025-11-23 23:00:00,38.4,38.8,15.5,80.0,15.1,375.0,Satisfactory
Patur,20.4602277,76.9380493,2025-11-23 23:00:00,27.3,27.5,7.5,96.0,12.5,382.0,Good
Chalisgaon,20.4626213,75.0069134,2025-11-23 23:00:00,31.8,32.5,11.5,64.0,9.5,551.0,Satisfactory
Cuttack,20.4686,85.8792,2025-11-23 23:00:00,78.7,80.3,15.4,82.0,22.6,725.0,Moderate
Phulbani,20.4762322,84.2348517,2025-11-23 23:00:00,30.4,30.9,10.5,58.0,7.1,410.0,Satisfactory
Ner,20.4919069,77.8678515,2025-11-23 23:00:00,38.4,38.8,15.5,80.0,15.1,414.0,Satisfactory
Choudwar,20.5276823,85.910155,2025-11-23 23:00:00,78.7,80.3,15.4,82.0,22.6,725.0,Moderate
Kendrapara,20.5042089,86.4159937,2025-11-23 23:00:00,77.1,79.4,6.3,113.0,26.7,628.0,Moderate
Hinganghat,20.5484132,78.8411206,2025-11-23 23:00:00,44.5,45.3,14.1,72.0,13.5,419.0,Satisfactory
Balapur,20.6683381,76.773777,2025-11-23 23:00:00,30.5,30.7,9.7,93.0,13.3,491.0,Satisfactory
Nandgaon Khandeshwar,20.6798162,77.8324046,2025-11-23 23:00:00,47.1,47.5,17.0,69.0,12.7,547.0,Satisfactory
Akola,20.7116604,77.002632,2025-11-23 23:00:00,32.5,32.8,12.7,86.0,9.9,485.0,Satisfactory
Athmallik,20.7218533,84.5347509,2025-11-23 23:00:00,73.8,74.5,16.2,54.0,25.4,496.0,Moderate
Murtijapur,20.7346452,77.3699281,2025-11-23 23:00:00,32.5,32.8,12.7,86.0,9.9,422.0,Satisfactory
Wardha,20.7464941,78.5997922,2025-11-23 23:00:00,53.4,54.0,21.7,64.0,15.5,630.0,Satisfactory
Kodinar,20.795759,70.7045453,2025-11-23 23:00:00,41.6,42.6,19.8,57.0,8.4,577.0,Satisfactory
Jamner,20.8084074,75.7801609,2025-11-23 23:00:00,48.8,49.4,27.1,56.0,24.5,407.0,Satisfactory
Nuapada,20.8085208,82.5340241,2025-11-23 23:00:00,47.5,48.8,7.1,87.0,13.4,379.0,Satisfactory
Pauni,20.7926372,79.6359627,2025-11-23 23:00:00,58.6,60.3,13.6,67.0,9.7,672.0,Satisfactory
Dhamangaon,20.7857563,78.1400186,2025-11-23 23:00:00,47.1,47.5,17.0,69.0,12.7,503.0,Satisfactory
Una,20.8198898,71.0391641,2025-11-23 23:00:00,45.5,47.6,14.5,71.0,9.3,721.0,Satisfactory
Angul,20.8382426,85.0973949,2025-11-23 23:00:00,112.2,113.2,28.2,67.0,53.3,619.0,Poor
Subarnapur,20.8453864,83.909083,2025-11-23 23:00:00,62.9,63.8,16.4,63.0,16.4,493.0,Moderate
Jajpur,20.8522696,86.3385714,2025-11-23 23:00:00,83.6,85.4,11.5,93.0,22.3,733.0,Moderate
Bhuban,20.8821978,85.8334076,2025-11-23 23:00:00,81.0,82.4,15.9,74.0,21.6,639.0,Moderate
Malkapur,20.8875432,76.1984229,2025-11-23 23:00:00,32.2,32.5,9.6,81.0,11.9,483.0,Satisfactory
Dhule,20.898,74.7732,2025-11-23 23:00:00,40.0,40.6,16.5,78.0,11.5,733.0,Satisfactory
Veraval,20.9101099,70.365279,2025-11-23 23:00:00,28.3,29.5,12.7,68.0,6.6,497.0,Good
Navsari,20.952407,72.9323831,2025-11-23 23:00:00,88.2,89.4,33.1,73.0,54.7,782.0,Moderate
Sakri,20.9910829,74.3154391,2025-11-23 23:00:00,41.6,42.1,11.5,100.0,12.1,674.0,Satisfactory
Amalner,21.0400032,75.0703748,2025-11-23 23:00:00,45.4,46.0,39.5,30.0,11.1,568.0,Satisfactory
Bagbahra,21.0473726,82.3863574,2025-11-23 23:00:00,70.5,72.2,7.5,100.0,21.5,385.0,Moderate
Kankadahad,21.0701647,85.5697992,2025-11-23 23:00:00,79.2,80.6,21.4,64.0,25.9,567.0,Moderate
Jalgaon Jamod,21.0479439,76.5317596,2025-11-23 23:00:00,36.8,37.1,26.2,41.0,8.0,485.0,Satisfactory
Rajula,21.038617,71.4438845,2025-11-23 23:00:00,51.9,53.9,19.2,73.0,10.2,416.0,Satisfactory
Mahuva,21.0914409,71.7621979,2025-11-23 23:00:00,51.9,53.9,19.2,73.0,10.2,429.0,Satisfactory
Valod,21.0488646,73.2615399,2025-11-23 23:00:00,76.4,77.5,19.2,73.0,17.8,600.0,Moderate
Akot,21.0949,77.0526,2025-11-23 23:00:00,46.4,46.8,21.9,72.0,9.8,538.0,Satisfactory
Vyara,21.1121514,73.3960108,2025-11-23 23:00:00,76.4,77.5,19.2,73.0,17.8,459.0,Moderate
Mangrol,21.1241507,70.1199203,2025-11-23 23:00:00,21.7,23.6,12.0,79.0,7.8,417.0,Good
Kondhali,21.1373833,78.6402291,2025-11-23 23:00:00,81.3,82.2,21.1,101.0,54.5,353.0,Moderate
Mauda,21.1438248,79.3955738,2025-11-23 23:00:00,101.7,103.1,52.1,49.0,66.2,621.0,Poor
Savda,21.1508089,75.8885226,2025-11-23 23:00:00,53.2,53.7,29.2,50.0,15.1,550.0,Satisfactory
Songadh,21.1702124,73.5622874,2025-11-23 23:00:00,63.3,64.0,13.8,90.0,15.8,581.0,Moderate
Navapur,21.1599,73.7941,2025-11-23 23:00:00,63.3,64.0,13.8,90.0,15.8,530.0,Moderate
Karanja,21.1629711,78.4102353,2025-11-23 23:00:00,60.8,61.2,16.3,85.0,18.6,357.0,Moderate
Dongargarh,21.1884868,80.7560121,2025-11-23 23:00:00,88.0,89.2,42.6,40.0,16.0,461.0,Moderate
Kamptee,21.2170645,79.1964178,2025-11-23 23:00:00,101.7,103.1,52.1,49.0,66.2,776.0,Poor
Raver,21.2469,76.036,2025-11-23 23:00:00,53.2,53.7,29.2,50.0,15.1,729.0,Satisfactory
Chopda,21.2471857,75.2989555,2025-11-23 23:00:00,45.4,46.0,39.5,30.0,11.1,581.0,Satisfactory
Pithora,21.2530999,82.5156818,2025-11-23 23:00:00,70.5,72.2,7.5,100.0,21.5,350.0,Moderate
Shindkheda,21.270921,74.745656,2025-11-23 23:00:00,55.8,56.2,27.9,56.0,13.4,658.0,Satisfactory
Paratwada,21.2989934,77.5167471,2025-11-23 23:00:00,53.1,53.6,18.7,87.0,11.0,467.0,Satisfactory
Burhanpur,21.3118839,76.2291992,2025-11-23 23:00:00,36.8,37.1,26.2,41.0,8.0,461.0,Satisfactory
Mendarda,21.3232985,70.4425757,2025-11-23 23:00:00,24.7,26.6,15.3,66.0,7.1,716.0,Good
Bargarh,21.3335004,83.6190492,2025-11-23 23:00:00,107.6,109.4,18.5,84.0,48.5,648.0,Poor
Visavadar,21.3417058,70.7534299,2025-11-23 23:00:00,36.3,38.1,23.3,64.0,7.9,469.0,Satisfactory
Shirpur,21.3527715,74.8841836,2025-11-23 23:00:00,55.8,56.2,27.9,56.0,13.4,417.0,Satisfactory
Nandurbar,21.363778,74.2411418,2025-11-23 23:00:00,59.8,60.3,25.9,84.0,15.8,773.0,Satisfactory
Talaja,21.3545788,72.0368814,2025-11-23 23:00:00,56.6,58.3,14.2,76.0,12.4,471.0,Satisfactory
Amgaon,21.3733211,80.3823893,2025-11-23 23:00:00,66.4,67.8,21.5,46.0,9.9,709.0,Moderate
Tumsar,21.3820399,79.7500206,2025-11-23 23:00:00,76.6,78.7,26.8,56.0,12.0,1149.0,Moderate
Kharora,21.4004069,81.9263837,2025-11-23 23:00:00,91.0,92.9,12.4,90.0,30.4,539.0,Poor
Umarpada,21.4563995,73.4757224,2025-11-23 23:00:00,68.0,69.2,20.4,71.0,11.4,432.0,Moderate
Chandipur,21.4699365,87.0518592,2025-11-23 23:00:00,140.2,142.5,19.7,92.0,25.0,682.0,Very Poor
Warud,21.473109,78.2728518,2025-11-23 23:00:00,49.9,50.6,17.5,73.0,10.8,367.0,Satisfactory
Palitana,21.5236104,71.8219597,2025-11-23 23:00:00,59.8,62.4,22.1,72.0,12.7,513.0,Satisfactory
Shahada,21.5409188,74.4716616,2025-11-23 23:00:00,65.9,66.4,29.4,75.0,17.3,734.0,Moderate
Sausar,21.6535265,78.7969518,2025-11-23 23:00:00,51.3,52.3,12.4,67.0,13.7,399.0,Satisfactory
Pandhurna,21.5954798,78.5258489,2025-11-23 23:00:00,49.9,50.6,17.5,73.0,10.8,357.0,Satisfactory
Kasdol,21.6193745,82.4270994,2025-11-23 23:00:00,96.6,98.5,9.4,113.0,37.4,355.0,Poor
Dediapada,21.6271369,73.5898076,2025-11-23 23:00:00,68.0,69.2,20.4,71.0,11.4,409.0,Moderate
Netrang,21.6395746,73.3661964,2025-11-23 23:00:00,73.6,75.2,22.0,73.0,10.9,534.0,Moderate
Porbandar,21.6409,69.611,2025-11-23 23:00:00,21.9,24.0,13.8,88.0,9.3,367.0,Good
Digha,21.6224576,87.5069427,2025-11-23 23:00:00,107.3,110.8,6.5,162.0,26.9,850.0,Poor
Balodabazar,21.6564735,82.1605962,2025-11-23 23:00:00,91.0,92.9,12.4,90.0,30.4,623.0,Poor
Lathi,21.724718,71.3899959,2025-11-23 23:00:00,54.2,56.3,41.0,38.0,9.9,407.0,Satisfactory
Sihor,21.720494,71.9605587,2025-11-23 23:00:00,59.8,62.4,22.1,72.0,12.7,572.0,Satisfactory
Dahej,21.7118382,72.5898083,2025-11-23 23:00:00,61.7,63.8,14.9,93.0,11.3,485.0,Moderate
Bharuch,21.7080427,72.9956936,2025-11-23 23:00:00,70.3,72.6,16.9,92.0,10.3,595.0,Moderate
Bhatapara,21.7353478,81.9444592,2025-11-23 23:00:00,91.0,92.9,12.4,90.0,30.4,632.0,Poor
Chital,21.7346125,71.2004615,2025-11-23 23:00:00,54.2,56.3,41.0,38.0,9.9,385.0,Satisfactory
Dhoraji,21.734812,70.4491538,2025-11-23 23:00:00,25.4,27.7,16.8,59.0,9.4,448.0,Good
Betnoti,21.7418915,86.8456965,2025-11-23 23:00:00,123.4,125.3,20.3,80.0,25.4,852.0,Very Poor
Bhavnagar,21.7718836,72.1416449,2025-11-23 23:00:00,59.8,62.4,22.1,72.0,12.7,532.0,Satisfactory
Karanjia,21.7578311,85.9726727,2025-11-23 23:00:00,71.2,73.3,14.0,62.0,17.4,432.0,Moderate
Katangi,21.7725576,79.8038021,2025-11-23 23:00:00,115.3,117.6,45.1,35.0,20.8,442.0,Poor
Multai,21.7745903,78.2635058,2025-11-23 23:00:00,49.9,50.6,17.5,73.0,10.8,359.0,Satisfactory
Contai,21.7805923,87.7448286,2025-11-23 23:00:00,107.3,110.8,6.5,162.0,26.9,933.0,Poor
Balaghat,21.8133417,80.1916685,2025-11-23 23:00:00,82.4,84.8,28.7,43.0,13.6,514.0,Moderate
Khandwa,21.8203752,76.3555424,2025-11-23 23:00:00,62.6,64.0,7.0,98.0,11.3,459.0,Moderate
Bhikangaon,21.8669568,75.9635237,2025-11-23 23:00:00,59.6,60.8,6.8,97.0,10.6,435.0,Satisfactory
Jam Kandoma,21.8926077,70.4972555,2025-11-23 23:00:00,21.5,23.9,11.0,78.0,9.7,406.0,Good
Koira,21.9068705,85.2505093,2025-11-23 23:00:00,84.3,87.3,18.3,92.0,49.0,412.0,Moderate
Baripada,21.9342456,86.7308825,2025-11-23 23:00:00,130.4,133.6,18.5,94.0,31.8,675.0,Very Poor
Amla,21.9244135,78.1252113,2025-11-23 23:00:00,66.8,68.7,14.7,72.0,16.8,368.0,Moderate
Amod,21.9907832,72.8706259,2025-11-23 23:00:00,77.3,79.6,33.1,54.0,20.5,652.0,Moderate
Kawardha,22.0059254,81.2332055,2025-11-23 23:00:00,67.5,69.6,8.7,101.0,11.5,462.0,Moderate
Akaltara,22.0237482,82.4260255,2025-11-23 23:00:00,131.8,134.1,35.3,65.0,64.8,609.0,Very Poor
Champua,22.0668387,85.6655176,2025-11-23 23:00:00,85.9,89.4,9.2,115.0,35.6,519.0,Moderate
Karjan,22.0523055,73.1216703,2025-11-23 23:00:00,79.4,81.3,35.5,56.0,16.7,840.0,Moderate
Chhindwara,22.0578244,78.9386203,2025-11-23 23:00:00,57.9,60.3,11.2,57.0,8.3,445.0,Satisfactory
Bilaspur,22.0785627,82.1476475,2025-11-23 23:00:00,108.0,110.4,26.7,68.0,41.3,504.0,Poor
Seoni,22.0910049,79.5507791,2025-11-23 23:00:00,69.6,72.4,13.1,68.0,12.1,436.0,Moderate
Baihar,22.1050116,80.5481854,2025-11-23 23:00:00,68.5,71.0,15.9,67.0,14.8,452.0,Moderate
Kasrawad,22.1229442,75.6097401,2025-11-23 23:00:00,56.6,57.6,11.0,79.0,12.0,495.0,Satisfactory
Sundargarh,22.119973,84.0369931,2025-11-23 23:00:00,141.1,143.4,29.6,80.0,76.7,653.0,Very Poor
Rajgangpur,22.1911263,84.5867472,2025-11-23 23:00:00,110.4,112.7,23.3,74.0,46.8,463.0,Poor
Junnardeo,22.1950168,78.5946421,2025-11-23 23:00:00,60.8,62.6,11.3,57.0,11.6,382.0,Moderate
Barwala,22.1518623,71.8957058,2025-11-23 23:00:00,39.6,41.6,20.9,61.0,7.6,478.0,Satisfactory
Botad,22.1686,71.6685,2025-11-23 23:00:00,26.4,28.2,17.4,62.0,6.2,441.0,Good
Diamond Harbour,22.1926886,88.1894879,2025-11-23 23:00:00,144.4,148.5,24.3,67.0,29.6,841.0,Very Poor
Gharghoda,22.1674127,83.3485457,2025-11-23 23:00:00,140.2,142.5,42.6,63.0,66.6,655.0,Very Poor
Khirkiya,22.1671863,76.8618051,2025-11-23 23:00:00,62.4,63.8,4.9,103.0,12.6,441.0,Moderate
Maheshwar,22.177435,75.5873514,2025-11-23 23:00:00,56.6,57.6,11.0,79.0,12.0,508.0,Satisfactory
Jamai,22.2049139,78.5505553,2025-11-23 23:00:00,67.1,69.4,9.9,61.0,8.5,382.0,Moderate
Khambhaliya,22.2129642,69.6533407,2025-11-23 23:00:00,23.1,26.7,8.9,92.0,7.3,360.0,Good
Kalavad,22.2143736,70.3834253,2025-11-23 23:00:00,22.4,25.0,12.4,73.0,7.2,434.0,Good
Dharmapuri,22.1492635,75.3431477,2025-11-23 23:00:00,58.0,58.9,17.9,75.0,15.3,483.0,Satisfactory
Dwarka,22.2424747,68.9671448,2025-11-23 23:00:00,29.0,35.0,2.5,143.0,7.7,369.0,Good
Padra,22.2412214,73.0855259,2025-11-23 23:00:00,66.6,68.2,35.4,48.0,13.8,819.0,Moderate
Barwaha,22.2543335,76.0371519,2025-11-23 23:00:00,64.3,65.9,7.9,93.0,10.2,397.0,Moderate
Khambhat,22.3166806,72.6243126,2025-11-23 23:00:00,71.5,73.3,40.6,50.0,21.0,722.0,Moderate
Kharagpur,22.34309,87.3012875,2025-11-23 23:00:00,167.2,170.9,32.3,60.0,32.4,1222.0,Very Poor
Baruipur,22.3607154,88.4325575,2025-11-23 23:00:00,156.9,161.6,55.9,58.0,43.4,1004.0,Very Poor
Timarni,22.3664266,77.2224788,2025-11-23 23:00:00,73.8,75.9,7.7,89.0,10.2,463.0,Moderate
Medinipur,22.4207025,87.3269963,2025-11-23 23:00:00,167.2,170.9,32.3,60.0,32.4,1122.0,Very Poor
Lawngtlai,22.5280366,92.898086,2025-11-23 23:00:00,28.0,30.0,13.3,31.0,2.3,423.0,Good
Nainpur,22.4294001,80.106204,2025-11-23 23:00:00,87.8,92.0,11.7,83.0,13.6,615.0,Moderate
Vasad,22.4516351,73.0671647,2025-11-23 23:00:00,66.6,68.2,35.4,48.0,13.8,678.0,Moderate
Chakulia,22.4830145,86.7179264,2025-11-23 23:00:00,143.4,147.1,23.0,90.0,37.5,681.0,Very Poor
Sayla,22.5494312,71.4820838,2025-11-23 23:00:00,15.0,16.8,9.0,76.0,5.8,366.0,Good
Chaibasa,22.550434,85.8024498,2025-11-23 23:00:00,125.3,128.5,25.3,90.0,78.6,822.0,Very Poor
Kolkata,22.5726459,88.3638953,2025-11-23 23:00:00,156.9,161.6,55.9,58.0,43.4,1461.0,Very Poor
Limbdi,22.5674,71.8062,2025-11-23 23:00:00,27.1,28.7,15.0,65.0,6.2,431.0,Good
Kalol,22.6103179,73.4617061,2025-11-23 23:00:00,54.6,56.8,13.4,70.0,8.9,421.0,Satisfactory
Wankaner,22.6153934,70.9495617,2025-11-23 23:00:00,17.2,19.4,9.1,75.0,7.0,712.0,Good
Muli,22.6217,71.4527,2025-11-23 23:00:00,14.7,16.6,8.2,78.0,6.4,323.0,Good
Bagli,22.6414301,76.3490059,2025-11-23 23:00:00,71.7,74.0,6.7,89.0,10.8,346.0,Moderate
Tankara,22.6562177,70.7486911,2025-11-23 23:00:00,17.2,19.4,9.1,75.0,7.0,392.0,Good
Kannod,22.6663174,76.7436921,2025-11-23 23:00:00,77.1,79.2,8.0,85.0,10.5,392.0,Moderate
Nasrullahganj,22.6830589,77.2682559,2025-11-23 23:00:00,80.6,83.1,9.0,86.0,10.3,424.0,Moderate
Jodiya,22.6925104,70.3054102,2025-11-23 23:00:00,17.5,19.5,7.6,74.0,5.9,291.0,Good
Betma,22.6875139,75.6116714,2025-11-23 23:00:00,80.3,82.0,20.1,69.0,15.7,793.0,Moderate
Amarkantak,22.670465,81.7588417,2025-11-23 23:00:00,81.5,87.8,10.6,82.0,15.5,384.0,Moderate
Chakradharpur,22.6761161,85.6288955,2025-11-23 23:00:00,107.6,111.8,19.6,98.0,51.0,651.0,Poor
Basirhat,22.6611962,88.8660215,2025-11-23 23:00:00,122.0,127.6,31.4,69.0,15.3,877.0,Very Poor
Nadiad,22.6895535,72.8713603,2025-11-23 23:00:00,51.1,53.2,28.0,63.0,16.9,628.0,Satisfactory
Sohagpur,22.6994891,78.1962111,2025-11-23 23:00:00,91.0,94.1,15.2,65.0,9.6,554.0,Poor
Wadhawan,22.710552,71.6784206,2025-11-23 23:00:00,14.7,16.6,8.2,78.0,6.4,412.0,Good
Dholka,22.726607,72.4411863,2025-11-23 23:00:00,43.2,45.5,25.7,66.0,15.5,524.0,Satisfactory
Indore,22.7203616,75.8681996,2025-11-23 23:00:00,72.9,74.7,13.8,81.0,12.6,503.0,Moderate
Kheda,22.7516133,72.6857205,2025-11-23 23:00:00,51.1,53.2,28.0,63.0,16.9,754.0,Satisfactory
Baduria,22.7366796,88.7873803,2025-11-23 23:00:00,122.0,127.6,31.4,69.0,15.3,908.0,Very Poor
Sitapur,22.7785318,83.4950985,2025-11-23 23:00:00,73.8,77.3,7.8,57.0,11.6,374.0,Moderate
Bankheri,22.7713106,78.5341689,2025-11-23 23:00:00,83.4,85.9,13.4,57.0,8.6,505.0,Moderate
Pipariya,22.7591836,78.3532766,2025-11-23 23:00:00,83.4,85.9,13.4,57.0,8.6,539.0,Moderate
Mahudha,22.8201982,72.9386868,2025-11-23 23:00:00,51.1,53.2,28.0,63.0,16.9,577.0,Satisfactory
Morbi,22.8176662,70.8345928,2025-11-23 23:00:00,17.2,19.4,9.1,75.0,7.0,401.0,Good
Bavla,22.8278859,72.3684741,2025-11-23 23:00:00,43.2,45.5,25.7,66.0,15.5,547.0,Satisfactory
Dahod,22.8358786,74.2556823,2025-11-23 23:00:00,67.1,68.5,26.4,62.0,18.1,480.0,Moderate
,22.8393153,69.7249477,2025-11-23 23:00:00,23.5,27.6,19.4,68.0,6.4,464.0,Good
Lakhtar,22.8553332,71.7916919,2025-11-23 23:00:00,14.7,16.6,8.2,78.0,6.4,437.0,Good
Lunglei,22.8931695,92.7470391,2025-11-23 23:00:00,29.6,31.7,13.6,32.0,2.3,288.0,Good
Arambagh,22.8765856,87.7908631,2025-11-23 23:00:00,222.1,226.3,55.5,54.0,47.5,1281.0,Very Poor
Kathlal,22.8985648,72.9908519,2025-11-23 23:00:00,51.1,53.2,28.0,63.0,16.9,530.0,Satisfactory
Kareli,22.9333855,79.0618955,2025-11-23 23:00:00,93.8,99.2,8.0,108.0,14.8,425.0,Poor
Balasinor,22.9561711,73.3370129,2025-11-23 23:00:00,50.5,52.3,19.0,62.0,9.8,487.0,Satisfactory
Petlawad,23.0101544,74.7977374,2025-11-23 23:00:00,59.4,60.5,11.2,74.0,9.6,462.0,Satisfactory
Baghicha,22.9773184,83.6532045,2025-11-23 23:00:00,73.8,77.3,7.8,57.0,11.6,317.0,Moderate
Dhrangadhra,22.9914292,71.4663753,2025-11-23 23:00:00,14.7,16.6,8.2,78.0,6.4,316.0,Good
Ahmedabad,23.0215374,72.5800568,2025-11-23 23:00:00,36.1,38.2,28.8,63.0,12.2,659.0,Satisfactory
Kapadvanj,23.0232402,73.0727531,2025-11-23 23:00:00,48.9,50.4,17.4,61.0,8.3,602.0,Satisfactory
Halvad,23.0159728,71.1797028,2025-11-23 23:00:00,15.6,17.2,4.5,87.0,7.2,316.0,Good
Badi,23.0333288,78.0755755,2025-11-23 23:00:00,81.7,85.2,11.0,66.0,7.6,414.0,Moderate
Sabroom,23.0024859,91.7306775,2025-11-23 23:00:00,45.2,46.1,13.0,63.0,3.5,393.0,Satisfactory
Udaipura,23.0745681,78.5133515,2025-11-23 23:00:00,85.0,88.5,10.5,61.0,8.5,359.0,Moderate
Khunti,23.0770961,85.2800459,2025-11-23 23:00:00,106.9,113.2,14.7,84.0,25.2,468.0,Poor
Pandua,23.0751399,88.2828926,2025-11-23 23:00:00,200.2,205.4,69.5,21.0,33.9,1022.0,Very Poor
Anuppur,23.1184595,81.6992038,2025-11-23 23:00:00,85.7,93.6,9.1,104.0,16.2,436.0,Moderate
Maliya,23.0931749,70.7599456,2025-11-23 23:00:00,15.1,16.9,6.1,79.0,6.7,313.0,Good
Lunavada,23.1290668,73.611114,2025-11-23 23:00:00,51.6,54.4,14.2,65.0,7.5,453.0,Satisfactory
Indpur,23.1568159,86.9227264,2025-11-23 23:00:00,167.6,172.8,46.3,67.0,81.3,645.0,Very Poor
Jabalpur,23.1701522,79.9324505,2025-11-23 23:00:00,109.0,114.6,11.7,80.0,14.5,946.0,Poor
Bundu,23.1609186,85.5901102,2025-11-23 23:00:00,110.8,116.2,22.3,90.0,49.8,550.0,Poor
Ujjain,23.1885131,75.7716562,2025-11-23 23:00:00,71.9,74.0,14.1,72.0,10.3,522.0,Moderate
Patdi,23.1909514,71.7959976,2025-11-23 23:00:00,15.7,17.5,8.2,73.0,6.8,477.0,Good
Santrampur,23.1927742,73.8959255,2025-11-23 23:00:00,54.4,56.6,11.4,75.0,8.9,454.0,Satisfactory
Kushalgarh,23.1990144,74.4520656,2025-11-23 23:00:00,63.6,65.7,15.1,68.0,10.6,413.0,Moderate
Manendragarh,23.2167227,82.2035806,2025-11-23 23:00:00,88.7,94.3,24.7,44.0,28.0,346.0,Moderate
Bayad,23.2248593,73.2153042,2025-11-23 23:00:00,48.9,50.4,17.4,61.0,8.3,582.0,Satisfactory
Birnagar,23.2367126,88.5552105,2025-11-23 23:00:00,200.2,205.4,69.5,21.0,33.9,1162.0,Very Poor
Shantipur,23.2464,88.4437,2025-11-23 23:00:00,200.2,205.4,69.5,21.0,33.9,1161.0,Very Poor
Bhopal,23.2584857,77.401989,2025-11-23 23:00:00,82.4,85.9,13.4,73.0,7.9,485.0,Moderate
Thenzawl,23.2812844,92.7753405,2025-11-23 23:00:00,29.8,31.7,15.5,24.0,1.9,315.0,Good
,23.2977,70.3459,2025-11-23 23:00:00,16.7,19.0,6.9,79.0,6.9,355.0,Good
Silwani,23.3011771,78.4404437,2025-11-23 23:00:00,85.0,88.5,10.5,61.0,8.5,336.0,Moderate
Chhatna,23.3115,86.9669,2025-11-23 23:00:00,167.6,172.8,46.3,67.0,81.3,486.0,Very Poor
Kala Pipal,23.3358151,76.8350507,2025-11-23 23:00:00,84.3,87.1,12.6,76.0,11.2,464.0,Moderate
Malpur,23.3594332,73.4649753,2025-11-23 23:00:00,51.6,54.4,14.2,65.0,7.5,345.0,Satisfactory
Raisen,23.330111,77.7842511,2025-11-23 23:00:00,82.4,85.9,13.4,73.0,7.9,366.0,Moderate
,23.3495267,69.2653851,2025-11-23 23:00:00,22.5,25.8,16.2,47.0,5.3,341.0,Good
Nabadwip,23.4086684,88.3657991,2025-11-23 23:00:00,178.8,184.4,40.1,43.0,19.7,1061.0,Very Poor
Krishnanagar,23.4058481,88.4958935,2025-11-23 23:00:00,178.8,184.4,40.1,43.0,19.7,1289.0,Very Poor
Gairatganj,23.4101246,78.2212624,2025-11-23 23:00:00,69.4,73.1,7.0,73.0,6.6,359.0,Moderate
Shajapur,23.4240705,76.2838697,2025-11-23 23:00:00,72.6,76.1,13.8,62.0,8.7,466.0,Moderate
Bagidora,23.4033108,74.2662004,2025-11-23 23:00:00,54.2,56.7,10.3,76.0,7.6,420.0,Satisfactory
Mansa,23.425103,72.6583024,2025-11-23 23:00:00,42.6,44.5,23.4,57.0,8.6,690.0,Satisfactory
Prantij,23.4372086,72.8518061,2025-11-23 23:00:00,42.6,44.5,23.4,57.0,8.6,505.0,Satisfactory
Chapra,23.5203126,88.5498071,2025-11-23 23:00:00,178.8,184.4,40.1,43.0,19.7,1200.0,Very Poor
Melaghar,23.4947164,91.3300645,2025-11-23 23:00:00,58.3,59.4,22.5,53.0,4.2,546.0,Satisfactory
Majholi,23.4998001,79.9253697,2025-11-23 23:00:00,86.6,92.2,6.9,80.0,8.8,388.0,Moderate
Adra,23.4970875,86.6750811,2025-11-23 23:00:00,127.6,132.7,38.8,47.0,42.3,523.0,Very Poor
Udaipur,23.5416162,91.4917593,2025-11-23 23:00:00,48.2,49.1,12.8,60.0,4.1,533.0,Satisfactory
Gaurjhamar,23.5247531,78.9373642,2025-11-23 23:00:00,72.9,77.3,6.5,74.0,7.2,411.0,Moderate
Umaria,23.5246558,80.8361408,2025-11-23 23:00:00,105.7,114.8,13.8,81.0,11.6,442.0,Poor
Champhai,23.4787183,93.3198879,2025-11-23 23:00:00,24.1,26.3,12.2,39.0,2.3,244.0,Good
Sarangpur,23.5702907,76.4722144,2025-11-23 23:00:00,72.6,76.1,13.8,62.0,8.7,496.0,Moderate
,23.570746,70.6450466,2025-11-23 23:00:00,16.7,19.2,8.7,80.0,7.4,338.0,Good
Mahesana,23.6015557,72.3867981,2025-11-23 23:00:00,28.9,30.6,28.7,56.0,8.6,645.0,Good
Ramgarh,23.6303213,85.5215878,2025-11-23 23:00:00,117.1,124.8,18.2,64.0,19.0,476.0,Poor
Barkakana,23.6187565,85.4517696,2025-11-23 23:00:00,117.1,124.8,18.2,64.0,19.0,476.0,Poor
Katwa,23.644278,88.1287333,2025-11-23 23:00:00,196.0,201.2,39.1,44.0,24.4,1156.0,Very Poor
Tehatta,23.7339059,88.5333576,2025-11-23 23:00:00,178.8,184.4,40.1,43.0,19.7,1265.0,Very Poor
Harij,23.6931596,71.9008666,2025-11-23 23:00:00,21.8,23.7,22.5,54.0,7.1,354.0,Good
Gyaraspur,23.6690334,78.1124604,2025-11-23 23:00:00,68.2,71.5,8.6,68.0,6.3,412.0,Moderate
Latehar,23.74423,84.499839,2025-11-23 23:00:00,95.2,102.4,8.9,111.0,21.9,378.0,Poor
Aizawl,23.7277631,92.7179947,2025-11-23 23:00:00,33.9,35.7,15.3,43.0,2.8,403.0,Satisfactory
Lengpui,23.8314147,92.6287719,2025-11-23 23:00:00,38.3,40.2,8.7,63.0,3.6,319.0,Satisfactory
Baghmara,23.789329,86.2041444,2025-11-23 23:00:00,157.9,163.9,53.2,40.0,40.6,451.0,Very Poor
Nirsa,23.784437,86.7068534,2025-11-23 23:00:00,127.6,132.7,38.8,47.0,42.3,461.0,Very Poor
Ramanujganj,23.806378,83.6998108,2025-11-23 23:00:00,119.2,128.1,5.7,110.0,16.2,514.0,Poor
Shamsabad,23.8140102,77.495995,2025-11-23 23:00:00,64.3,67.8,8.5,83.0,7.5,420.0,Moderate
Dungarpur,23.8538893,73.7087177,2025-11-23 23:00:00,54.5,58.0,18.7,53.0,9.2,440.0,Satisfactory
Agartala,23.8312377,91.2823821,2025-11-23 23:00:00,65.7,66.8,24.7,60.0,5.4,604.0,Moderate
Idar,23.8411191,73.0000307,2025-11-23 23:00:00,55.8,58.2,22.8,41.0,9.1,730.0,Satisfactory
Basoda,23.8480899,77.941471,2025-11-23 23:00:00,59.6,63.1,9.0,78.0,7.0,364.0,Satisfactory
Gomoh,23.8735307,86.151587,2025-11-23 23:00:00,91.7,99.0,11.8,60.0,10.8,405.0,Poor
Ambassa,23.9216436,91.8511393,2025-11-23 23:00:00,63.3,65.2,19.1,57.0,6.6,529.0,Moderate
Biaora,23.9167592,76.9106389,2025-11-23 23:00:00,67.3,70.8,11.2,67.0,6.2,367.0,Moderate
Beldanga,23.9396239,88.2495778,2025-11-23 23:00:00,152.3,156.5,22.4,66.0,16.4,761.0,Very Poor
Sainthia,23.9496876,87.6829354,2025-11-23 23:00:00,114.1,118.3,15.2,72.0,16.2,1220.0,Poor
Jamtara,23.9630448,86.8027604,2025-11-23 23:00:00,87.3,91.7,10.7,78.0,12.9,471.0,Moderate
Kherwara,23.9853145,73.5945403,2025-11-23 23:00:00,54.5,58.0,18.7,53.0,9.2,360.0,Satisfactory
Karimpur,23.9816034,88.6296098,2025-11-23 23:00:00,163.9,169.5,29.9,62.0,13.3,972.0,Very Poor
Rajgarh,24.0051159,76.733677,2025-11-23 23:00:00,67.3,70.8,11.2,67.0,6.2,366.0,Moderate
Bhabhar,24.0701471,71.5976062,2025-11-23 23:00:00,22.0,24.0,14.6,60.0,7.4,407.0,Good
Medininagar,24.0397192,84.0658109,2025-11-23 23:00:00,117.1,124.8,19.8,67.0,18.5,578.0,Poor
Panki,24.0377324,84.4765431,2025-11-23 23:00:00,93.1,99.2,7.9,70.0,10.6,392.0,Poor
Khedbrahma,24.0310837,73.0484016,2025-11-23 23:00:00,55.8,58.2,22.8,41.0,9.1,552.0,Satisfactory
Hariharpara,24.0436901,88.4230988,2025-11-23 23:00:00,152.3,156.5,22.4,66.0,16.4,880.0,Very Poor
Khilchipur,24.0386844,76.5779471,2025-11-23 23:00:00,65.4,69.8,15.3,59.0,11.6,352.0,Moderate
Mandsaur,24.0682898,75.0742388,2025-11-23 23:00:00,52.6,55.4,8.8,84.0,14.9,434.0,Satisfactory
Suwasra,24.069588,75.6533298,2025-11-23 23:00:00,56.2,59.5,10.8,80.0,19.8,452.0,Satisfactory
Berhampore,24.1044927,88.2510635,2025-11-23 23:00:00,152.3,156.5,22.4,66.0,16.4,835.0,Very Poor
Sarada,24.1440935,73.824259,2025-11-23 23:00:00,53.3,56.3,14.9,74.0,11.4,452.0,Satisfactory
Kurwai,24.1185386,78.0408203,2025-11-23 23:00:00,59.6,63.1,9.0,78.0,7.0,425.0,Satisfactory
Kamalpur,24.1737224,91.8171322,2025-11-23 23:00:00,63.3,65.2,19.1,57.0,6.6,893.0,Moderate
Domkal,24.1209008,88.5499213,2025-11-23 23:00:00,152.3,156.5,22.4,66.0,16.4,939.0,Very Poor
Salumbar,24.1390484,74.0461856,2025-11-23 23:00:00,53.3,56.3,14.9,74.0,11.4,444.0,Satisfactory
Palanpur,24.1709794,72.4366375,2025-11-23 23:00:00,23.7,25.4,25.1,52.0,7.4,349.0,Good
Chachaura-Binaganj,24.1778426,77.0000858,2025-11-23 23:00:00,66.6,69.6,8.4,82.0,7.3,354.0,Moderate
Giridih,24.1862602,86.3087238,2025-11-23 23:00:00,88.7,95.0,14.6,61.0,11.2,430.0,Moderate
Murshidabad,24.1745993,88.2721335,2025-11-23 23:00:00,152.3,156.5,22.4,66.0,16.4,811.0,Very Poor
Kailashahar,24.3194297,91.9984289,2025-11-23 23:00:00,82.4,84.1,31.4,50.0,10.0,938.0,Moderate
Sagardighi,24.2899135,88.0922003,2025-11-23 23:00:00,127.1,131.3,18.4,75.0,20.0,687.0,Very Poor
Dumka,24.2677937,87.2485495,2025-11-23 23:00:00,98.7,105.2,12.0,93.0,16.8,442.0,Poor
Madhupur,24.2741982,86.6392318,2025-11-23 23:00:00,103.4,110.4,14.2,92.0,17.6,428.0,Poor
Deesa,24.2594977,72.1803348,2025-11-23 23:00:00,16.8,17.8,10.1,73.0,6.6,358.0,Good
Bhagwangola,24.3334648,88.3070509,2025-11-23 23:00:00,135.0,138.8,18.9,79.0,16.0,706.0,Very Poor
Chhatarpur,24.3695641,84.1885769,2025-11-23 23:00:00,143.9,152.3,18.1,68.0,17.1,566.0,Very Poor
Uchahera,24.3810731,80.7832544,2025-11-23 23:00:00,100.8,106.9,16.1,73.0,12.6,562.0,Poor
Aron,24.3813938,77.4168008,2025-11-23 23:00:00,59.8,63.1,7.7,89.0,8.5,438.0,Satisfactory
Chhoti Sadri,24.3829511,74.7013558,2025-11-23 23:00:00,56.2,59.1,9.2,92.0,18.9,438.0,Satisfactory
Tharad,24.3897272,71.6292685,2025-11-23 23:00:00,22.4,24.2,11.4,64.0,6.6,367.0,Good
Katlicherra,24.469067,92.5581981,2025-11-23 23:00:00,68.0,69.8,16.1,50.0,8.7,333.0,Moderate
Mungaoli,24.4089425,78.0965907,2025-11-23 23:00:00,55.4,59.1,9.4,83.0,7.8,415.0,Satisfactory
Aklera,24.4150218,76.5663056,2025-11-23 23:00:00,70.3,73.8,14.7,61.0,15.0,477.0,Moderate
Raghunathganj,24.4615088,88.0665362,2025-11-23 23:00:00,127.1,131.3,18.4,75.0,20.0,742.0,Very Poor
Bari Sadri,24.4155188,74.4751013,2025-11-23 23:00:00,53.9,56.5,10.5,84.0,14.7,455.0,Satisfactory
Jhumri Tilaiya,24.4348984,85.529513,2025-11-23 23:00:00,106.4,114.8,7.4,136.0,22.5,466.0,Poor
Murarai,24.4393904,87.86126,2025-11-23 23:00:00,127.1,131.3,18.4,75.0,20.0,764.0,Very Poor
Palel,24.450839,94.0262982,2025-11-23 23:00:00,30.6,32.4,17.3,36.0,4.1,299.0,Satisfactory
Deoghar,24.4898318,86.6990182,2025-11-23 23:00:00,103.4,110.4,14.2,92.0,17.6,480.0,Poor
Abu Road,24.4828256,72.7820384,2025-11-23 23:00:00,47.4,49.8,34.1,35.0,10.5,463.0,Satisfactory
Dobhi,24.5332368,84.9053475,2025-11-23 23:00:00,110.1,118.7,6.5,126.0,17.5,539.0,Poor
Rewa,24.5359,81.2934,2025-11-23 23:00:00,108.7,114.6,13.5,78.0,14.6,482.0,Poor
Doongla,24.5071182,74.328998,2025-11-23 23:00:00,53.9,56.5,10.5,84.0,14.7,498.0,Satisfactory
Sherghati,24.5684657,84.8016642,2025-11-23 23:00:00,110.1,118.7,6.5,126.0,17.5,741.0,Poor
Satna,24.5751308,80.8325721,2025-11-23 23:00:00,100.8,106.9,16.1,73.0,12.6,478.0,Poor
Ashoknagar,24.576189,77.7302895,2025-11-23 23:00:00,59.8,63.1,7.7,89.0,8.5,403.0,Satisfactory
Jhalawar,24.5931704,76.1664528,2025-11-23 23:00:00,70.8,74.5,13.3,81.0,27.4,664.0,Moderate
Thoubal,24.6386954,93.996871,2025-11-23 23:00:00,48.4,50.4,37.8,28.0,8.9,456.0,Satisfactory
Bishnupur,24.6267287,93.7600454,2025-11-23 23:00:00,51.9,53.6,33.0,27.0,11.3,445.0,Satisfactory
Ramganj Mandi,24.6453169,75.9430409,2025-11-23 23:00:00,79.9,84.5,15.0,89.0,24.1,529.0,Moderate
Chhabra,24.6685519,76.8478646,2025-11-23 23:00:00,64.5,68.2,14.2,60.0,6.8,380.0,Moderate
Hailakandi,24.6846916,92.5645836,2025-11-23 23:00:00,83.4,84.5,27.2,30.0,13.2,688.0,Moderate
Farakka,24.7868983,87.9099061,2025-11-23 23:00:00,127.6,132.7,23.5,70.0,21.4,688.0,Very Poor
Tikamgarh,24.7428616,78.8322022,2025-11-23 23:00:00,60.1,65.7,11.7,77.0,7.4,434.0,Moderate
Jhajha,24.7697902,86.3775631,2025-11-23 23:00:00,110.6,118.0,16.0,105.0,21.2,464.0,Poor
Sanchore,24.7533864,71.7720096,2025-11-23 23:00:00,24.7,26.2,8.3,64.0,6.0,358.0,Good
Vallabhnagar,24.6733041,74.0023613,2025-11-23 23:00:00,66.6,70.8,14.6,92.0,17.4,435.0,Moderate
Pindwara,24.7926,73.0469,2025-11-23 23:00:00,58.7,62.9,20.0,60.0,13.0,488.0,Satisfactory
Gaya,24.7964355,85.0079563,2025-11-23 23:00:00,156.5,163.9,22.3,91.0,33.0,1077.0,Very Poor
Wazirganj,24.8005234,85.2380746,2025-11-23 23:00:00,156.5,163.9,22.3,91.0,33.0,814.0,Very Poor
Lakhipur,24.7928227,93.0090947,2025-11-23 23:00:00,44.7,46.0,18.3,26.0,5.1,450.0,Satisfactory
Rafiganj,24.8186239,84.6333022,2025-11-23 23:00:00,183.0,190.5,43.1,54.0,38.6,1099.0,Very Poor
Karimganj,24.8647214,92.3681114,2025-11-23 23:00:00,83.4,84.5,27.2,30.0,13.2,484.0,Moderate
Kaliachak,24.8626213,88.0186202,2025-11-23 23:00:00,127.6,132.7,23.5,70.0,21.4,668.0,Very Poor
Barharw,24.8571403,87.7789524,2025-11-23 23:00:00,119.2,125.7,23.9,74.0,22.6,507.0,Poor
Nawada,24.893152,85.5451599,2025-11-23 23:00:00,140.2,148.1,18.2,107.0,32.0,702.0,Very Poor
Sirohi,24.8858,72.8589,2025-11-23 23:00:00,40.5,43.8,22.7,66.0,12.8,420.0,Satisfactory
Kamjong,24.8577847,94.5107757,2025-11-23 23:00:00,18.9,20.1,18.6,31.0,2.0,242.0,Good
Banka,24.8810826,86.9197693,2025-11-23 23:00:00,116.6,123.9,20.1,93.0,23.4,542.0,Poor
Majhagawan,24.9179651,80.8071061,2025-11-23 23:00:00,87.1,94.5,8.7,99.0,9.7,435.0,Moderate
Dehri,24.90776,84.1901412,2025-11-23 23:00:00,151.8,158.3,20.3,79.0,25.5,861.0,Very Poor
Chittorgarh,24.8837157,74.6244155,2025-11-23 23:00:00,60.8,64.0,8.1,100.0,25.5,404.0,Moderate
Jamui,24.9275595,86.2254945,2025-11-23 23:00:00,110.6,118.0,16.0,105.0,21.2,740.0,Poor
Nathdwara,24.9303453,73.8224937,2025-11-23 23:00:00,66.6,70.8,14.6,92.0,17.4,600.0,Moderate
Chitalwana,24.9084204,71.660289,2025-11-23 23:00:00,24.7,26.2,8.3,64.0,6.0,527.0,Good
Kapasan,24.8877449,74.3123201,2025-11-23 23:00:00,59.4,62.2,10.6,87.0,19.2,409.0,Satisfactory
Sasaram,24.9509656,84.0148733,2025-11-23 23:00:00,151.8,158.3,20.3,79.0,25.5,849.0,Very Poor
Singoli,24.9682,75.2916,2025-11-23 23:00:00,64.7,68.9,8.3,105.0,29.8,418.0,Moderate
Koraon,24.9978827,82.0718342,2025-11-23 23:00:00,121.5,129.0,9.0,126.0,21.7,465.0,Very Poor
Bhinmal,25.0071053,72.2653077,2025-11-23 23:00:00,26.1,27.9,24.0,61.0,7.8,454.0,Good
Maharajpur,25.0169621,79.7265182,2025-11-23 23:00:00,84.8,92.4,17.1,74.0,11.5,430.0,Moderate
Malda,25.0057449,88.1398483,2025-11-23 23:00:00,145.3,150.4,31.2,67.0,29.0,624.0,Very Poor
Ahraura,25.0159366,83.0329811,2025-11-23 23:00:00,169.5,176.5,29.9,81.0,35.1,535.0,Very Poor
Rajgir,25.0299973,85.4207368,2025-11-23 23:00:00,166.7,173.2,42.0,45.0,34.0,656.0,Very Poor
Mahgama,25.0344023,87.3185899,2025-11-23 23:00:00,136.9,143.4,30.2,70.0,30.2,708.0,Very Poor
Giriak,25.0272676,85.5246175,2025-11-23 23:00:00,166.7,173.2,42.0,45.0,34.0,685.0,Very Poor
Amarpur,25.0399854,86.9028384,2025-11-23 23:00:00,141.1,147.1,39.7,46.0,29.5,715.0,Very Poor
Bhabua,25.0420354,83.6087865,2025-11-23 23:00:00,161.6,168.1,22.7,86.0,28.5,651.0,Very Poor
Kudra,25.046606,83.7920943,2025-11-23 23:00:00,161.6,168.1,22.7,86.0,28.5,788.0,Very Poor
Warisaliganj,25.0167067,85.6398857,2025-11-23 23:00:00,166.7,173.2,42.0,45.0,34.0,829.0,Very Poor
Chakia,25.0483283,83.2195469,2025-11-23 23:00:00,169.5,176.5,29.9,81.0,35.1,785.0,Very Poor
Manikpur Sarhat,25.0651315,81.0996924,2025-11-23 23:00:00,97.1,104.8,13.4,94.0,14.1,459.0,Poor
Lakshimpur,25.0052919,86.3960437,2025-11-23 23:00:00,141.1,147.6,36.7,50.0,28.3,505.0,Very Poor
Kishanganj,25.1069614,76.6369912,2025-11-23 23:00:00,60.3,64.5,15.5,58.0,7.7,379.0,Moderate
Islampur,25.141775,85.2064677,2025-11-23 23:00:00,156.9,163.4,35.6,54.0,27.1,771.0,Very Poor
Chunar,25.1281931,82.8835399,2025-11-23 23:00:00,176.0,183.0,32.6,69.0,42.6,1069.0,Very Poor
Lauri,25.1409432,80.0057406,2025-11-23 23:00:00,87.5,95.2,14.0,77.0,12.8,574.0,Moderate
Gangrar,25.051447,74.6101496,2025-11-23 23:00:00,61.0,64.0,8.5,101.0,20.4,429.0,Moderate
Haflong,25.1645049,93.017599,2025-11-23 23:00:00,27.2,28.3,11.9,46.0,1.3,315.0,Good
Bijolia,25.162885,75.3237803,2025-11-23 23:00:00,66.8,71.2,9.7,105.0,22.2,437.0,Moderate
Mohania,25.1676579,83.621622,2025-11-23 23:00:00,161.6,168.1,22.7,86.0,28.5,1135.0,Very Poor
Mahur,25.1830797,93.1133862,2025-11-23 23:00:00,27.2,28.3,11.9,46.0,1.3,316.0,Good
Ratua,25.2044556,87.9285908,2025-11-23 23:00:00,145.3,150.4,31.2,67.0,29.0,584.0,Very Poor
Shankargarh,25.1836065,81.6166539,2025-11-23 23:00:00,119.2,126.2,18.8,89.0,23.7,675.0,Poor
Sadri,25.1866458,73.4527029,2025-11-23 23:00:00,77.1,81.5,29.1,61.0,14.3,414.0,Moderate
Gudha Malani,25.1893,71.7218,2025-11-23 23:00:00,27.8,29.3,11.2,58.0,6.3,440.0,Good
Lakhisarai,25.176771,86.0931767,2025-11-23 23:00:00,162.1,168.6,43.1,50.0,33.2,991.0,Very Poor
Bali,25.1895706,73.2905263,2025-11-23 23:00:00,51.5,55.1,25.1,55.0,9.4,487.0,Satisfactory
Bihar Sharif,25.193859,85.5208617,2025-11-23 23:00:00,166.7,173.2,42.0,45.0,34.0,905.0,Very Poor
Kota,25.1737019,75.8574194,2025-11-23 23:00:00,96.2,101.7,24.2,76.0,14.4,744.0,Poor
Dhorimanna,25.2039581,71.4385071,2025-11-23 23:00:00,27.8,29.3,11.2,58.0,6.3,333.0,Good
Chitrakoot Dham,25.2158257,80.9164001,2025-11-23 23:00:00,92.7,100.8,13.7,100.0,13.1,525.0,Poor
Jehanabad,25.2113384,84.9873701,2025-11-23 23:00:00,178.8,185.3,50.1,43.0,32.0,855.0,Very Poor
Chitrakoot,25.1743883,80.8691307,2025-11-23 23:00:00,92.7,100.8,13.7,100.0,13.1,525.0,Poor
Bikramganj,25.2219788,84.2653139,2025-11-23 23:00:00,184.4,191.4,46.9,47.0,30.0,913.0,Very Poor
Ekangar Sarai,25.2220539,85.2298038,2025-11-23 23:00:00,156.9,163.4,35.6,54.0,27.1,851.0,Very Poor
Babina,25.2393732,78.4698691,2025-11-23 23:00:00,65.9,71.2,13.1,80.0,9.1,393.0,Moderate
Balurghat,25.2234352,88.7780654,2025-11-23 23:00:00,139.2,142.0,34.1,45.0,14.3,1189.0,Very Poor
Surajgarha,25.252957,86.2260458,2025-11-23 23:00:00,141.1,147.6,36.7,50.0,28.3,834.0,Very Poor
Bhagalpur,25.2494829,86.9828131,2025-11-23 23:00:00,141.1,147.1,39.7,46.0,29.5,623.0,Very Poor
Sohra (Cherrapunji),25.2777336,91.7292416,2025-11-23 23:00:00,43.8,44.7,16.9,50.0,3.5,397.0,Satisfactory
Desuri,25.2794664,73.5688591,2025-11-23 23:00:00,77.1,81.5,29.1,61.0,14.3,452.0,Moderate
Barhiya,25.2861994,86.0201258,2025-11-23 23:00:00,162.1,168.6,43.1,50.0,33.2,747.0,Very Poor
Atarra Buzurg,25.2884104,80.5746861,2025-11-23 23:00:00,92.4,100.8,14.6,93.0,14.8,554.0,Poor
Mahoba,25.2886851,79.8792071,2025-11-23 23:00:00,87.5,95.2,14.0,77.0,12.8,569.0,Moderate
Nursarai,25.2710548,85.4578766,2025-11-23 23:00:00,166.7,173.2,42.0,45.0,34.0,903.0,Very Poor
Maibong,25.3021275,93.1332922,2025-11-23 23:00:00,27.2,28.3,11.9,46.0,1.3,315.0,Good
Keshoraipatan,25.2915232,75.9399658,2025-11-23 23:00:00,96.2,101.7,24.2,76.0,14.4,645.0,Poor
Jalore,25.3476006,72.6260916,2025-11-23 23:00:00,27.0,29.2,19.1,65.0,7.2,426.0,Good
Bhilwara,25.348,74.636,2025-11-23 23:00:00,61.0,64.0,8.5,101.0,20.4,460.0,Moderate
Khliehriat,25.3587124,92.3669702,2025-11-23 23:00:00,21.9,22.5,7.2,48.0,0.9,287.0,Good
Ahore,25.3682474,72.7809896,2025-11-23 23:00:00,27.0,29.2,19.1,65.0,7.2,423.0,Good
Rajapur,25.3863662,81.1494181,2025-11-23 23:00:00,97.1,104.8,13.4,94.0,14.1,571.0,Poor
Kabrai,25.4015677,80.0035135,2025-11-23 23:00:00,95.2,102.4,30.0,52.0,12.7,531.0,Poor
Mokama,25.3958052,85.9220644,2025-11-23 23:00:00,162.1,168.6,43.1,50.0,33.2,688.0,Very Poor
Balia,25.4234048,86.313751,2025-11-23 23:00:00,154.6,160.7,43.3,46.0,39.1,836.0,Very Poor
Garahni,25.4068456,84.5558167,2025-11-23 23:00:00,156.5,161.6,33.4,49.0,24.3,1081.0,Very Poor
Begusarai,25.4139122,86.1348804,2025-11-23 23:00:00,156.9,162.5,45.7,36.0,35.2,791.0,Very Poor
Kumarganj,25.4251628,88.7317867,2025-11-23 23:00:00,133.6,136.0,36.2,37.0,13.1,1125.0,Very Poor
Jowai,25.4434703,92.1973181,2025-11-23 23:00:00,14.6,15.2,6.6,58.0,0.4,280.0,Good
Prayagraj,25.4381302,81.8338005,2025-11-23 23:00:00,125.3,130.4,27.3,53.0,27.0,881.0,Very Poor
Bakhtiyarpur,25.4586233,85.5369022,2025-11-23 23:00:00,155.1,160.2,45.4,34.0,32.3,731.0,Very Poor
Jagdispur,25.4668347,84.4179931,2025-11-23 23:00:00,156.5,161.6,33.4,49.0,24.3,851.0,Very Poor
Suriyawan,25.4641655,82.4181237,2025-11-23 23:00:00,148.5,154.1,33.6,45.0,27.8,728.0,Very Poor
Langting,25.4972313,93.1136328,2025-11-23 23:00:00,25.3,26.1,9.0,46.0,0.7,305.0,Good
Barh,25.4711351,85.7060668,2025-11-23 23:00:00,155.1,160.2,45.4,34.0,32.3,717.0,Very Poor
Manjhanpur,25.5306196,81.3749382,2025-11-23 23:00:00,109.7,116.2,23.3,60.0,16.2,636.0,Poor
Saidpur,25.5367972,83.2217547,2025-11-23 23:00:00,176.5,181.6,52.5,29.0,29.3,867.0,Very Poor
Baberu,25.5469357,80.7012999,2025-11-23 23:00:00,105.7,112.7,27.0,57.0,15.1,601.0,Poor
Arrah,25.560317,84.6632139,2025-11-23 23:00:00,166.2,171.8,51.4,34.0,27.6,1034.0,Very Poor
Chirgaon,25.5735429,78.8126634,2025-11-23 23:00:00,88.0,94.8,27.0,62.0,9.7,712.0,Moderate
Buxar,25.5716195,83.9729568,2025-11-23 23:00:00,160.2,165.3,30.5,52.0,25.7,841.0,Very Poor
Shillong,25.5759931,91.8827872,2025-11-23 23:00:00,14.6,15.2,6.6,58.0,0.4,337.0,Good
Garautha,25.5741086,79.2975183,2025-11-23 23:00:00,91.7,98.5,32.9,50.0,11.1,587.0,Poor
Gursarai,25.6154461,79.1828015,2025-11-23 23:00:00,91.7,98.5,32.9,50.0,11.1,572.0,Poor
Meluri,25.6844515,94.6284816,2025-11-23 23:00:00,14.4,15.5,10.0,33.0,0.9,287.0,Good
Phek,25.7098345,94.4633429,2025-11-23 23:00:00,25.3,27.1,20.1,46.0,2.6,315.0,Good
Narwar,25.6433256,77.9117307,2025-11-23 23:00:00,72.6,77.5,13.8,91.0,10.9,600.0,Moderate
Maner,25.6466488,84.8763388,2025-11-23 23:00:00,166.2,171.8,51.4,34.0,27.6,1066.0,Very Poor
Bakhri,25.6001555,86.2558659,2025-11-23 23:00:00,154.6,160.7,43.3,46.0,39.1,783.0,Very Poor
Mungra Badshahpur,25.6579111,82.1902983,2025-11-23 23:00:00,125.3,130.4,27.3,53.0,27.0,534.0,Very Poor
Saini,25.6660544,81.3262263,2025-11-23 23:00:00,109.7,116.2,23.3,60.0,16.2,740.0,Poor
Machhlishahr,25.6875311,82.4109017,2025-11-23 23:00:00,148.5,154.1,33.6,45.0,27.8,546.0,Very Poor
Lakheri,25.6730413,76.1922423,2025-11-23 23:00:00,96.6,101.5,37.0,57.0,13.5,527.0,Poor
Moth,25.7294,78.9508,2025-11-23 23:00:00,88.0,94.8,27.0,62.0,9.7,654.0,Moderate
Marwar Junction,25.7259059,73.6097336,2025-11-23 23:00:00,68.9,72.6,34.3,38.0,10.2,416.0,Moderate
Barmer,25.745304,71.3998217,2025-11-23 23:00:00,31.1,32.2,14.0,58.0,11.6,361.0,Satisfactory
Bhim,25.7384145,74.079374,2025-11-23 23:00:00,70.1,73.6,28.6,54.0,12.4,415.0,Moderate
Ballia,25.7557446,84.1503303,2025-11-23 23:00:00,160.2,165.3,30.5,52.0,25.7,1116.0,Very Poor
Dighwara,25.7434481,85.0010412,2025-11-23 23:00:00,157.4,162.5,49.1,34.0,31.1,894.0,Very Poor
Jaunpur,25.7472,82.689,2025-11-23 23:00:00,170.4,176.0,53.2,30.0,33.7,622.0,Very Poor
Indragarh,25.7283498,76.191368,2025-11-23 23:00:00,96.6,101.5,37.0,57.0,13.5,527.0,Poor
Nainwa,25.7698671,75.8541304,2025-11-23 23:00:00,96.6,101.5,37.0,57.0,13.5,654.0,Poor
Pali,25.7682376,73.3275135,2025-11-23 23:00:00,40.0,42.5,23.5,56.0,8.4,547.0,Satisfactory
Chhapra,25.7784105,84.7514507,2025-11-23 23:00:00,166.2,171.8,51.4,34.0,27.6,779.0,Very Poor
Revelganj,25.7846684,84.6447511,2025-11-23 23:00:00,166.2,171.8,51.4,34.0,27.6,736.0,Very Poor
Purnia,25.7773601,87.4731227,2025-11-23 23:00:00,136.0,141.6,28.0,67.0,29.6,777.0,Very Poor
Karandighi,25.8157405,87.9208421,2025-11-23 23:00:00,126.2,129.5,26.4,47.0,20.8,890.0,Very Poor
Lumding,25.7535433,93.1731676,2025-11-23 23:00:00,25.3,26.1,9.0,46.0,0.7,324.0,Good
Kunda,25.7172101,81.5137022,2025-11-23 23:00:00,132.7,137.8,31.0,48.0,28.4,740.0,Very Poor
Balotra,25.834763,72.2410908,2025-11-23 23:00:00,27.4,28.8,28.7,41.0,7.0,469.0,Good
Asind,25.7339012,74.3321514,2025-11-23 23:00:00,54.7,57.4,8.3,99.0,15.1,428.0,Satisfactory
Samastipur,25.8596845,85.7839038,2025-11-23 23:00:00,161.1,166.7,46.5,35.0,33.6,845.0,Very Poor
Rasra,25.8608909,83.8556102,2025-11-23 23:00:00,135.5,140.6,24.8,65.0,22.3,991.0,Very Poor
Saharsa,25.8758962,86.5926702,2025-11-23 23:00:00,161.1,167.2,49.7,39.0,36.7,1025.0,Very Poor
Vijainagar,25.9304646,74.6513212,2025-11-23 23:00:00,54.9,58.0,11.6,96.0,13.8,461.0,Satisfactory
Pachpadra,25.921916,72.253248,2025-11-23 23:00:00,27.4,28.8,28.7,41.0,7.0,394.0,Good
Lanka,25.9207022,92.9502797,2025-11-23 23:00:00,43.1,44.0,14.5,28.0,3.4,514.0,Satisfactory
Pratapgarh,25.921061,82.0023601,2025-11-23 23:00:00,104.5,109.2,19.5,64.0,20.8,599.0,Poor
Supaul,25.9463295,86.2473604,2025-11-23 23:00:00,161.1,167.2,49.7,39.0,36.7,995.0,Very Poor
Fatehpur,25.9291159,80.8105997,2025-11-23 23:00:00,115.9,121.5,28.9,51.0,19.0,830.0,Poor
Hamirpur,25.9516,80.1511,2025-11-23 23:00:00,105.0,111.5,39.3,42.0,13.7,640.0,Poor
Rohat,25.9582028,73.1404949,2025-11-23 23:00:00,36.6,38.4,26.7,55.0,9.3,431.0,Satisfactory
Orai,25.9863918,79.4534538,2025-11-23 23:00:00,104.5,110.6,37.9,46.0,12.5,648.0,Poor
Wokha,26.0962958,94.2544489,2025-11-23 23:00:00,25.8,26.5,15.6,31.0,1.6,410.0,Good
Salon,26.0286877,81.4540176,2025-11-23 23:00:00,111.1,115.9,21.7,63.0,19.7,660.0,Poor
Todaraisingh,26.0252473,75.4848698,2025-11-23 23:00:00,84.5,89.2,28.8,72.0,15.3,692.0,Moderate
Dhubri,26.019642,89.991393,2025-11-23 23:00:00,55.3,56.3,12.2,71.0,5.7,500.0,Satisfactory
Muhammadabad Gohna,26.0341851,83.3816323,2025-11-23 23:00:00,134.6,139.2,32.0,54.0,23.4,949.0,Very Poor
Dalmau,26.0757662,81.051715,2025-11-23 23:00:00,117.1,122.0,25.9,55.0,18.9,712.0,Poor
Mubarakpur,26.0875514,83.2905851,2025-11-23 23:00:00,134.6,139.2,32.0,54.0,23.4,883.0,Very Poor
Raniganj,26.0850923,87.2355105,2025-11-23 23:00:00,136.4,140.6,28.0,46.0,20.8,1274.0,Very Poor
Masrakh,26.1037889,84.8040728,2025-11-23 23:00:00,145.3,150.4,35.7,48.0,24.3,994.0,Very Poor
Dinhata,26.1279625,89.4631456,2025-11-23 23:00:00,60.5,61.5,12.7,72.0,5.8,545.0,Moderate
Goalpara,26.1783623,90.6226683,2025-11-23 23:00:00,46.3,47.4,12.0,55.0,4.5,515.0,Satisfactory
Ghatampur,26.1551192,80.1674983,2025-11-23 23:00:00,105.0,111.5,39.3,42.0,13.7,554.0,Poor
Tribeniganj,26.1270382,86.8872792,2025-11-23 23:00:00,147.6,152.7,40.2,43.0,28.3,1427.0,Very Poor
Lambhua,26.1373895,82.2278891,2025-11-23 23:00:00,111.3,115.5,25.5,54.0,22.1,584.0,Poor
Bilara,26.1818418,73.708888,2025-11-23 23:00:00,56.6,59.3,28.7,41.0,9.7,436.0,Satisfactory
Gauriganj,26.2071366,81.69259,2025-11-23 23:00:00,116.9,121.1,19.0,67.0,21.5,753.0,Poor
Bilasipara,26.2316753,90.2324363,2025-11-23 23:00:00,56.7,58.1,14.8,63.0,6.6,472.0,Satisfactory
Raebareli,26.2207738,81.2465203,2025-11-23 23:00:00,123.9,128.5,24.5,60.0,21.5,770.0,Very Poor
Pukhrayan,26.2269466,79.8397679,2025-11-23 23:00:00,118.0,123.9,37.0,45.0,16.7,846.0,Poor
Tufanganj,26.3139208,89.6665579,2025-11-23 23:00:00,66.4,67.3,20.5,49.0,4.8,381.0,Moderate
Kasba Bonli,26.3303779,76.2270358,2025-11-23 23:00:00,77.8,82.0,41.5,47.0,11.2,570.0,Moderate
Barhalganj,26.28326,83.5066212,2025-11-23 23:00:00,129.0,133.2,25.3,61.0,23.2,921.0,Very Poor
Barpeta,26.3257824,91.0075712,2025-11-23 23:00:00,55.2,56.5,14.6,53.0,5.6,446.0,Satisfactory
Sapotra,26.2922765,76.7535781,2025-11-23 23:00:00,61.9,66.1,32.8,49.0,8.3,379.0,Moderate
Jodhpur,26.2967719,73.0351433,2025-11-23 23:00:00,35.5,37.3,30.3,45.0,7.8,483.0,Satisfactory
Forbesganj,26.3049106,87.2632847,2025-11-23 23:00:00,133.6,136.9,24.6,55.0,16.5,1322.0,Very Poor
Nasirabad,26.297039,74.7369464,2025-11-23 23:00:00,54.4,57.6,12.7,97.0,12.6,477.0,Satisfactory
Jalalpur,26.3123442,82.7378132,2025-11-23 23:00:00,113.2,116.4,22.9,57.0,21.1,727.0,Poor
Shergarh,26.3278926,72.295726,2025-11-23 23:00:00,20.5,21.6,12.7,60.0,6.5,405.0,Good
Joura,26.3439772,77.8036975,2025-11-23 23:00:00,77.1,82.2,24.0,73.0,12.6,504.0,Moderate
Nagaon,26.3482238,92.6858215,2025-11-23 23:00:00,46.9,48.0,14.8,45.0,5.1,848.0,Satisfactory
Matabhanga,26.3413614,89.2150554,2025-11-23 23:00:00,117.8,119.7,39.2,42.0,12.4,459.0,Poor
Gohad,26.422782,78.4394152,2025-11-23 23:00:00,86.6,92.0,25.6,82.0,12.3,605.0,Moderate
Musarfirkhana,26.3750048,81.8030854,2025-11-23 23:00:00,104.5,108.5,15.0,69.0,18.8,609.0,Poor
Kesariya,26.3521771,84.8707033,2025-11-23 23:00:00,130.9,135.5,26.8,63.0,23.8,1143.0,Very Poor
Akbarpur,26.3832104,79.9488395,2025-11-23 23:00:00,118.0,123.9,37.0,45.0,16.7,678.0,Poor
Thakurganj,26.427636,88.1300288,2025-11-23 23:00:00,104.8,106.6,25.0,44.0,11.2,1017.0,Poor
Akbarpur,26.4200687,82.5382541,2025-11-23 23:00:00,106.6,110.1,18.9,63.0,20.8,580.0,Poor
Rangia,26.4444441,91.6172816,2025-11-23 23:00:00,62.2,63.8,18.9,47.0,5.7,739.0,Moderate
Mangaldoi,26.436303,92.0306569,2025-11-23 23:00:00,66.8,68.7,18.3,57.0,7.9,488.0,Moderate
Nalbari,26.445568,91.4354335,2025-11-23 23:00:00,62.2,63.8,18.9,47.0,5.7,563.0,Moderate
Jagdishpur,26.456101,81.6198203,2025-11-23 23:00:00,116.9,121.1,19.0,67.0,21.5,996.0,Poor
Dhing,26.4582273,92.4819173,2025-11-23 23:00:00,54.7,56.0,17.0,57.0,7.5,307.0,Satisfactory
Moirabari,26.4549295,92.4228752,2025-11-23 23:00:00,54.7,56.0,17.0,57.0,7.5,304.0,Satisfactory
Ajmer,26.4691,74.639,2025-11-23 23:00:00,54.4,57.6,12.7,97.0,12.6,502.0,Satisfactory
Pupri,26.470735,85.7017232,2025-11-23 23:00:00,184.9,190.5,53.6,24.0,35.5,1117.0,Very Poor
Karauli,26.4956,77.0275,2025-11-23 23:00:00,56.9,61.2,21.5,64.0,8.6,404.0,Satisfactory
Golaghat,26.5108262,93.9743686,2025-11-23 23:00:00,38.9,39.9,17.1,39.0,4.7,774.0,Satisfactory
Deoria,26.4998975,83.7829787,2025-11-23 23:00:00,129.0,133.2,25.3,61.0,23.2,736.0,Very Poor
Inhauna,26.5247536,81.4908148,2025-11-23 23:00:00,116.9,121.1,19.0,67.0,21.5,1090.0,Poor
Tanda,26.5511,82.6621,2025-11-23 23:00:00,113.2,116.4,22.9,57.0,21.1,595.0,Poor
Maynaguri,26.5652519,88.8221321,2025-11-23 23:00:00,106.9,109.0,28.0,72.0,13.0,706.0,Poor
Pakridayal,26.5543618,85.0622034,2025-11-23 23:00:00,159.3,165.3,37.1,55.0,31.8,802.0,Very Poor
Titabor,26.5924877,94.1951629,2025-11-23 23:00:00,38.9,39.9,17.1,39.0,4.7,613.0,Satisfactory
Jainagar,26.5882487,86.1402809,2025-11-23 23:00:00,188.1,193.2,52.3,25.0,30.8,1938.0,Very Poor
Kalaigaon,26.5741395,91.9755449,2025-11-23 23:00:00,66.8,68.7,18.3,57.0,7.9,369.0,Moderate
Sitamarhi,26.5942841,85.500428,2025-11-23 23:00:00,184.9,190.5,53.6,24.0,35.5,1078.0,Very Poor
Baori,26.6199627,73.1801874,2025-11-23 23:00:00,30.2,31.9,19.5,58.0,6.5,419.0,Satisfactory
Changtongya,26.5348636,94.6797413,2025-11-23 23:00:00,24.3,24.8,15.2,7.0,0.6,521.0,Good
Dibiyapur,26.6307,79.5536,2025-11-23 23:00:00,116.4,120.1,34.2,48.0,16.1,1147.0,Poor
Chauri Chaura,26.6502824,83.5873588,2025-11-23 23:00:00,100.6,103.8,14.2,83.0,22.5,542.0,Poor
Sursand,26.6447224,85.7224332,2025-11-23 23:00:00,159.3,163.0,32.7,28.0,14.9,1252.0,Very Poor
Tezpur,26.6229928,92.7976082,2025-11-23 23:00:00,31.5,32.9,10.2,63.0,4.1,319.0,Satisfactory
Dhaka,26.6741967,85.1670195,2025-11-23 23:00:00,190.5,195.6,40.3,36.0,30.9,989.0,Very Poor
Naksalbari,26.6844571,88.2001439,2025-11-23 23:00:00,80.6,82.7,21.1,86.0,8.4,856.0,Moderate
Dhaulpur,26.7010642,77.896749,2025-11-23 23:00:00,124.8,129.5,46.9,41.0,15.6,885.0,Very Poor
Mon,26.7252584,95.0304359,2025-11-23 23:00:00,12.0,12.4,6.1,5.0,0.2,235.0,Good
Sagauli,26.7695492,84.7416781,2025-11-23 23:00:00,118.5,122.0,24.6,54.0,20.6,775.0,Poor
Safipur,26.7377833,80.3445574,2025-11-23 23:00:00,122.9,126.7,31.4,51.0,19.3,932.0,Very Poor
Hata,26.7403,83.7441,2025-11-23 23:00:00,100.6,103.8,14.2,83.0,22.5,545.0,Poor
Maghar,26.7544858,83.1275735,2025-11-23 23:00:00,101.7,104.8,14.5,83.0,22.7,617.0,Poor
Bairgania,26.7400904,85.2754564,2025-11-23 23:00:00,190.5,195.6,40.3,36.0,30.9,1212.0,Very Poor
Udalguri,26.7503815,92.0977245,2025-11-23 23:00:00,45.9,47.7,13.4,71.0,5.6,276.0,Satisfactory
Degana,26.8958747,74.3222498,2025-11-23 23:00:00,61.9,64.5,16.2,73.0,11.0,431.0,Moderate
Mohan,26.7802746,80.6745721,2025-11-23 23:00:00,130.4,134.1,31.6,52.0,27.2,708.0,Very Poor
Faizabad,26.7807986,82.1486589,2025-11-23 23:00:00,115.5,118.5,18.1,63.0,21.4,584.0,Poor
Rudauli,26.7492405,81.748054,2025-11-23 23:00:00,128.5,132.2,20.5,61.0,24.3,788.0,Very Poor
Ayodhya,26.7990707,82.2052321,2025-11-23 23:00:00,104.1,106.9,14.8,66.0,18.8,590.0,Poor
Basti,26.7895579,82.7231355,2025-11-23 23:00:00,106.9,109.7,16.9,70.0,20.4,588.0,Poor
Asop,26.7967,73.5815,2025-11-23 23:00:00,52.3,54.6,25.9,53.0,9.2,493.0,Satisfactory
Bettiah,26.8023,84.5074,2025-11-23 23:00:00,104.3,107.1,15.6,68.0,19.1,735.0,Poor
Amguri,26.8098175,94.5249646,2025-11-23 23:00:00,49.4,50.3,22.4,31.0,5.4,706.0,Satisfactory
Lucknow,26.8381,80.9346001,2025-11-23 23:00:00,130.4,134.1,31.6,52.0,27.2,902.0,Very Poor
Bilhaur,26.8424857,80.0645793,2025-11-23 23:00:00,120.6,124.3,33.7,46.0,16.4,908.0,Very Poor
Chariduar,26.8628617,92.7809069,2025-11-23 23:00:00,31.5,32.9,10.2,63.0,4.1,358.0,Satisfactory
Gohpur,26.8814942,93.6138414,2025-11-23 23:00:00,30.9,32.5,8.9,64.0,4.4,292.0,Satisfactory
Nawabganj,26.8637478,82.1381306,2025-11-23 23:00:00,115.5,118.5,18.1,63.0,21.4,618.0,Poor
Phulera,26.8750866,75.2455501,2025-11-23 23:00:00,59.5,62.6,17.8,86.0,11.1,738.0,Satisfactory
Pinahat,26.8851057,78.374679,2025-11-23 23:00:00,120.1,124.8,46.0,52.0,16.2,992.0,Very Poor
Dariyabad,26.88861,81.556182,2025-11-23 23:00:00,128.5,132.2,20.5,61.0,24.3,979.0,Very Poor
Padrauna,26.9036455,83.9793208,2025-11-23 23:00:00,98.7,101.7,13.8,78.0,20.3,611.0,Poor
Ramkola,26.9052307,83.837023,2025-11-23 23:00:00,98.7,101.7,13.8,78.0,20.3,576.0,Poor
Nazira,26.9164974,94.736043,2025-11-23 23:00:00,36.8,37.5,21.4,8.0,1.6,835.0,Satisfactory
Raxaul,26.9833256,84.8523069,2025-11-23 23:00:00,118.5,122.0,24.6,54.0,20.6,1792.0,Poor
Malihabad,26.9231953,80.7100459,2025-11-23 23:00:00,130.4,134.1,31.6,52.0,27.2,850.0,Very Poor
Pokaran,26.9198813,71.9197573,2025-11-23 23:00:00,29.9,30.9,6.4,80.0,8.8,333.0,Good
Barabanki,26.9274097,81.1948375,2025-11-23 23:00:00,137.4,141.1,28.2,56.0,30.9,1216.0,Very Poor
Kheenvsar,26.9782849,73.4058199,2025-11-23 23:00:00,52.3,54.6,25.9,53.0,9.2,359.0,Satisfactory
Sivasagar,26.9834936,94.6394226,2025-11-23 23:00:00,36.8,37.5,21.4,8.0,1.6,1017.0,Satisfactory
Bhalukpong,27.0137235,92.6358068,2025-11-23 23:00:00,18.2,20.2,3.0,84.0,1.8,303.0,Good
Khonsa,26.9910099,95.5061065,2025-11-23 23:00:00,8.8,9.2,7.2,9.0,0.2,201.0,Good
Karhal,27.0033264,78.9404642,2025-11-23 23:00:00,130.9,134.1,52.9,30.0,22.6,802.0,Very Poor
Nawa,27.0214531,75.0027941,2025-11-23 23:00:00,80.8,84.3,42.1,60.0,12.6,491.0,Moderate
Paraspur,27.0318259,81.7802686,2025-11-23 23:00:00,128.1,130.4,24.6,58.0,24.3,797.0,Very Poor
Sandila,27.060558,80.5113664,2025-11-23 23:00:00,126.2,129.0,30.7,47.0,23.2,815.0,Very Poor
Mundwa,27.0628056,73.8216985,2025-11-23 23:00:00,57.2,59.4,27.3,49.0,8.6,507.0,Satisfactory
Narkatiaganj,27.102923,84.4646072,2025-11-23 23:00:00,86.4,91.0,18.5,78.0,18.3,816.0,Moderate
Dimow,27.1272894,94.7405111,2025-11-23 23:00:00,93.1,95.5,33.0,24.0,9.0,791.0,Poor
Itanagar,27.0979659,93.6237291,2025-11-23 23:00:00,16.3,17.3,11.0,37.0,2.3,216.0,Good
Khadda,27.1784019,83.8715042,2025-11-23 23:00:00,91.7,95.2,12.9,70.0,17.4,803.0,Poor
Rangpo,27.1744361,88.5303403,2025-11-23 23:00:00,57.5,59.0,19.8,91.0,5.9,687.0,Satisfactory
Siswa Bazar,27.1468901,83.7578251,2025-11-23 23:00:00,95.2,97.8,13.0,72.0,18.9,695.0,Poor
Gonda,27.1334827,81.9619743,2025-11-23 23:00:00,111.1,113.4,22.9,55.0,20.1,787.0,Poor
Namchi,27.1661262,88.3651981,2025-11-23 23:00:00,57.5,59.0,19.8,91.0,5.9,936.0,Satisfactory
Kuchaman,27.1519,74.8621,2025-11-23 23:00:00,83.8,87.3,45.7,43.0,10.9,494.0,Moderate
Achhnera,27.1771454,77.7575072,2025-11-23 23:00:00,135.0,139.2,50.5,37.0,22.7,919.0,Very Poor
Chomu,27.1726642,75.720359,2025-11-23 23:00:00,89.4,92.7,49.4,51.0,15.3,484.0,Moderate
Bilgram,27.1749307,80.0327344,2025-11-23 23:00:00,131.8,135.5,34.5,43.0,23.3,1087.0,Very Poor
Domariaganj,27.2041316,82.6525846,2025-11-23 23:00:00,91.3,93.6,13.8,71.0,16.7,584.0,Poor
Deomali,27.1959185,95.4642398,2025-11-23 23:00:00,5.2,5.4,4.8,16.0,0.3,245.0,Good
Etmadpur,27.2336372,78.1981356,2025-11-23 23:00:00,177.9,182.1,100.8,4.0,48.1,1927.0,Very Poor
North Lakhimpur,27.236211,94.1038765,2025-11-23 23:00:00,32.8,34.2,18.2,31.0,4.5,465.0,Satisfactory
Naugarh,27.2793034,83.0855607,2025-11-23 23:00:00,91.5,93.6,14.7,67.0,16.6,619.0,Poor
Naharkatia,27.286295,95.3258308,2025-11-23 23:00:00,65.4,66.1,22.6,4.0,3.3,751.0,Moderate
Farah,27.3206052,77.7622061,2025-11-23 23:00:00,135.0,139.2,50.5,37.0,22.7,750.0,Very Poor
Kimin,27.3057191,93.9656023,2025-11-23 23:00:00,32.8,34.2,18.2,31.0,4.5,234.0,Satisfactory
Nichlaul,27.3134215,83.7257283,2025-11-23 23:00:00,95.2,97.8,13.0,72.0,18.9,617.0,Poor
Jairampur,27.3568967,96.0134152,2025-11-23 23:00:00,6.6,6.7,4.6,11.0,0.1,272.0,Good
Bap,27.3747541,72.353164,2025-11-23 23:00:00,27.6,28.8,6.8,88.0,10.6,350.0,Good
Balrampur,27.4295126,82.1854602,2025-11-23 23:00:00,105.0,107.8,23.4,58.0,19.4,648.0,Poor
Panchoo,27.5004982,73.2129316,2025-11-23 23:00:00,30.5,31.9,6.5,83.0,7.3,389.0,Satisfactory
Biswan,27.4904821,80.995364,2025-11-23 23:00:00,115.9,118.0,27.8,50.0,22.7,734.0,Poor
Barhni,27.4971325,82.7908826,2025-11-23 23:00:00,82.4,84.5,17.9,43.0,9.0,606.0,Moderate
Tulspur,27.5337104,82.4165115,2025-11-23 23:00:00,78.5,81.0,18.4,47.0,11.2,586.0,Moderate
Mangan,27.5011476,88.5355333,2025-11-23 23:00:00,1.2,1.2,7.1,93.0,0.7,326.0,Good
Ziro,27.538668,93.815355,2025-11-23 23:00:00,7.6,8.2,5.0,36.0,0.6,191.0,Good
Raya,27.5575987,77.7916007,2025-11-23 23:00:00,154.6,157.9,119.5,1.0,31.0,1182.0,Very Poor
Etah,27.56002,78.6578425,2025-11-23 23:00:00,163.0,165.8,57.4,23.0,26.6,1454.0,Very Poor
Bahraich,27.5752,81.5954,2025-11-23 23:00:00,128.5,130.9,27.7,49.0,24.1,850.0,Very Poor
Ladnu,27.6418,74.3949,2025-11-23 23:00:00,44.1,45.9,15.2,68.0,7.8,494.0,Satisfactory
Kanwat,27.5889822,75.6989924,2025-11-23 23:00:00,80.8,84.3,37.9,55.0,13.1,540.0,Moderate
Bhinga,27.7033838,81.9338433,2025-11-23 23:00:00,105.0,107.8,23.4,58.0,19.4,837.0,Poor
Udaipurwati,27.7309897,75.4743975,2025-11-23 23:00:00,80.8,84.3,37.9,55.0,13.1,547.0,Moderate
Deshnoke,27.7986365,73.3446504,2025-11-23 23:00:00,30.5,31.9,6.5,83.0,7.3,400.0,Satisfactory
Kasganj,27.8077034,78.6456226,2025-11-23 23:00:00,156.5,158.3,26.6,67.0,28.3,1319.0,Very Poor
Laxmangarh,27.8214382,75.0250652,2025-11-23 23:00:00,79.6,82.4,18.9,75.0,13.2,637.0,Moderate
Nawalgarh,27.8503,75.2741,2025-11-23 23:00:00,79.6,82.4,18.9,75.0,13.2,690.0,Moderate
Nanpara,27.8684,81.5039,2025-11-23 23:00:00,107.6,110.4,19.2,58.0,15.8,762.0,Poor
Aligarh,27.8815412,78.0690216,2025-11-23 23:00:00,197.0,199.3,64.1,25.0,46.6,1211.0,Very Poor
Hodal,27.8999168,77.3739284,2025-11-23 23:00:00,178.8,181.1,86.1,18.0,42.7,1201.0,Very Poor
Fatehpur Shekhawati,27.9959965,74.9604565,2025-11-23 23:00:00,67.1,69.4,13.5,79.0,11.3,615.0,Moderate
Atrauli,28.0298331,78.2853798,2025-11-23 23:00:00,188.1,190.0,37.6,48.0,33.5,1256.0,Very Poor
Budaun,28.0367001,79.1234,2025-11-23 23:00:00,138.8,141.1,24.6,70.0,27.4,1093.0,Very Poor
Tappal,28.0408088,77.5769278,2025-11-23 23:00:00,189.5,192.3,94.0,8.0,39.3,1419.0,Very Poor
Mandawa,28.0558375,75.1483915,2025-11-23 23:00:00,79.6,82.4,18.9,75.0,13.2,608.0,Moderate
Sri Dungargarh,28.0928483,74.0113994,2025-11-23 23:00:00,49.1,50.9,7.7,88.0,9.6,491.0,Satisfactory
Dibai,28.205448,78.260716,2025-11-23 23:00:00,145.3,147.1,19.6,78.0,25.7,1073.0,Very Poor
Faridpur,28.2083265,79.5375964,2025-11-23 23:00:00,106.4,107.8,14.8,76.0,23.1,848.0,Poor
Nighasan,28.235056,80.8597376,2025-11-23 23:00:00,134.1,135.5,31.8,42.0,17.1,942.0,Very Poor
Chirawa,28.2408,75.6448,2025-11-23 23:00:00,111.8,114.1,25.7,73.0,16.9,757.0,Poor
Ballabgarh,28.3286134,77.3238914,2025-11-23 23:00:00,173.2,175.1,107.4,16.0,57.0,1882.0,Very Poor
Bareilly,28.355099,79.417851,2025-11-23 23:00:00,106.4,107.8,14.8,76.0,23.1,832.0,Poor
Pilani,28.3622661,75.6042342,2025-11-23 23:00:00,111.8,114.1,25.7,73.0,16.9,717.0,Poor
Palia Kalan,28.4312733,80.5810023,2025-11-23 23:00:00,112.7,114.3,21.4,59.0,16.3,792.0,Poor
Loharu,28.4279477,75.8054759,2025-11-23 23:00:00,124.8,127.6,30.6,71.0,18.4,839.0,Very Poor
Sardarshahar,28.4403,74.4895,2025-11-23 23:00:00,74.0,75.9,10.3,88.0,13.2,677.0,Moderate
Sikandarabad,28.4520179,77.6989831,2025-11-23 23:00:00,181.6,183.5,62.6,38.0,44.5,1339.0,Very Poor
Lunkaransar,28.4885,73.752,2025-11-23 23:00:00,58.3,59.3,8.2,79.0,18.5,607.0,Satisfactory
Charkhi Dadri,28.5919933,76.2719817,2025-11-23 23:00:00,134.6,137.4,33.8,64.0,19.9,800.0,Very Poor
Bahadurgarh,28.6933239,76.9332373,2025-11-23 23:00:00,148.1,150.4,40.2,57.0,33.2,1142.0,Very Poor
Babugarh,28.7225944,77.8468842,2025-11-23 23:00:00,145.3,147.1,23.8,64.0,23.9,1136.0,Very Poor
Muradnagar,28.7733808,77.5033582,2025-11-23 23:00:00,161.6,163.4,38.7,58.0,34.7,1357.0,Very Poor
Modinagar,28.8320713,77.5770873,2025-11-23 23:00:00,161.6,163.4,38.7,58.0,34.7,1341.0,Very Poor
Sahwa,28.8753793,74.8477507,2025-11-23 23:00:00,99.2,101.7,16.1,78.0,18.4,659.0,Poor
Sitarganj,28.9277351,79.7028923,2025-11-23 23:00:00,79.9,81.3,15.7,60.0,16.1,674.0,Moderate
Sonipat,28.9953758,77.0233627,2025-11-23 23:00:00,149.9,151.8,60.4,45.0,37.4,1158.0,Very Poor
Meham,28.9674025,76.2953562,2025-11-23 23:00:00,133.2,135.0,32.0,60.0,19.4,845.0,Very Poor
Pantnagar,29.028405,79.4832094,2025-11-23 23:00:00,54.7,56.8,17.4,75.0,14.8,667.0,Satisfactory
Kanth,29.0594576,78.6290448,2025-11-23 23:00:00,101.7,103.4,22.7,57.0,17.9,1037.0,Poor
